{"_meta":{"mode":"transit","target":{"lng":121.403915,"lat":31.164029},"generated_at":"2026-04-18T15:25:42.398Z","total":10305,"success":5135},"points":[{"id":"spider_金旋小区_浦东","name":"金旋小区","lat":31.187532,"lng":121.538603,"minutes":58,"tier":5},{"id":"spider_培花久远公寓_浦东","name":"培花久远公寓","lat":31.199663,"lng":121.562771,"minutes":77,"tier":5},{"id":"spider_惠德新邨_浦东","name":"惠德新邨","lat":31.197788,"lng":121.553243,"minutes":68,"tier":5},{"id":"spider_东莲大厦_浦东","name":"东莲大厦","lat":31.183908,"lng":121.559613,"minutes":77,"tier":5},{"id":"spider_陆家嘴锦绣里_浦东","name":"陆家嘴锦绣里","lat":31.190833,"lng":121.548543,"minutes":68,"tier":5},{"id":"spider_莲中二村_浦东","name":"莲中二村","lat":31.183001,"lng":121.561719,"minutes":76,"tier":5},{"id":"spider_环龙公寓_浦东","name":"环龙公寓","lat":31.192114,"lng":121.560961,"minutes":74,"tier":5},{"id":"spider_大华锦绣华城(十二街区)_浦东","name":"大华锦绣华城(十二街区)","lat":31.183102,"lng":121.542161,"minutes":71,"tier":5},{"id":"spider_花木新村_浦东","name":"花木新村","lat":31.197225,"lng":121.551276,"minutes":67,"tier":5},{"id":"spider_海东公寓_浦东","name":"海东公寓","lat":31.188338,"lng":121.556083,"minutes":70,"tier":5},{"id":"spider_大华锦绣华城(十五街区)_浦东","name":"大华锦绣华城(十五街区)","lat":31.189666,"lng":121.540724,"minutes":57,"tier":5},{"id":"spider_鹏海小区_浦东","name":"鹏海小区","lat":31.179173,"lng":121.568986,"minutes":89,"tier":5},{"id":"spider_加东花园_浦东","name":"加东花园","lat":31.190528,"lng":121.549457,"minutes":67,"tier":5},{"id":"spider_南新公寓_浦东","name":"南新公寓","lat":31.175359,"lng":121.542523,"minutes":76,"tier":5},{"id":"spider_莲溪一村_浦东","name":"莲溪一村","lat":31.188231,"lng":121.555756,"minutes":69,"tier":5},{"id":"spider_大华锦绣华城(四街区)_浦东","name":"大华锦绣华城(四街区)","lat":31.209011,"lng":121.509992,"minutes":68,"tier":5},{"id":"spider_绿川小区_浦东","name":"绿川小区","lat":31.174208,"lng":121.555338,"minutes":78,"tier":5},{"id":"spider_莲业新村_浦东","name":"莲业新村","lat":31.183472,"lng":121.55717,"minutes":80,"tier":5},{"id":"spider_高科西路2847弄_浦东","name":"高科西路2847弄","lat":31.192462,"lng":121.560142,"minutes":76,"tier":5},{"id":"spider_由由二村_浦东","name":"由由二村","lat":31.194629,"lng":121.532306,"minutes":74,"tier":5},{"id":"spider_莲杨苑_浦东","name":"莲杨苑","lat":31.179025,"lng":121.563659,"minutes":81,"tier":5},{"id":"spider_龙沟新苑_浦东","name":"龙沟新苑","lat":31.19902,"lng":121.57156,"minutes":105,"tier":5},{"id":"spider_大华锦绣华城(二街区)_浦东","name":"大华锦绣华城(二街区)","lat":31.18464,"lng":121.527939,"minutes":62,"tier":5},{"id":"spider_锦华东南苑_浦东","name":"锦华东南苑","lat":31.182362,"lng":121.544508,"minutes":70,"tier":5},{"id":"spider_芳草苑(浦东)_浦东","name":"芳草苑(浦东)","lat":31.198316,"lng":121.547962,"minutes":66,"tier":5},{"id":"spider_芳草路238弄_浦东","name":"芳草路238弄","lat":31.199418,"lng":121.562349,"minutes":77,"tier":5},{"id":"spider_大华斐勒公园_浦东","name":"大华斐勒公园","lat":31.191475,"lng":121.5392,"minutes":60,"tier":5},{"id":"spider_莲康苑_浦东","name":"莲康苑","lat":31.175669,"lng":121.566178,"minutes":78,"tier":5},{"id":"spider_紫叶花园东园_浦东","name":"紫叶花园东园","lat":31.184849,"lng":121.555017,"minutes":72,"tier":5},{"id":"spider_锦华花园_浦东","name":"锦华花园","lat":31.189874,"lng":121.542151,"minutes":58,"tier":5},{"id":"spider_金恒小区_浦东","name":"金恒小区","lat":31.187762,"lng":121.541399,"minutes":56,"tier":5},{"id":"spider_莲溪二村_浦东","name":"莲溪二村","lat":31.189283,"lng":121.563451,"minutes":80,"tier":5},{"id":"spider_莲溪三村_浦东","name":"莲溪三村","lat":31.18502,"lng":121.563732,"minutes":81,"tier":5},{"id":"spider_芳佳苑_浦东","name":"芳佳苑","lat":31.193998,"lng":121.550329,"minutes":57,"tier":5},{"id":"spider_玉兰小区_浦东","name":"玉兰小区","lat":31.18456,"lng":121.56579,"minutes":82,"tier":5},{"id":"spider_莲溪四村_浦东","name":"莲溪四村","lat":31.184313,"lng":121.563357,"minutes":79,"tier":5},{"id":"spider_万邦都市花园_浦东","name":"万邦都市花园","lat":31.204948,"lng":121.558723,"minutes":63,"tier":5},{"id":"spider_由由四村_浦东","name":"由由四村","lat":31.194834,"lng":121.536478,"minutes":67,"tier":5},{"id":"spider_由由民丰苑_浦东","name":"由由民丰苑","lat":31.192719,"lng":121.527782,"minutes":62,"tier":5},{"id":"spider_大华锦绣华城(十八街区)(公寓)_浦东","name":"大华锦绣华城(十八街区)(公寓)","lat":31.191158,"lng":121.544267,"minutes":64,"tier":5},{"id":"spider_南新四村_浦东","name":"南新四村","lat":31.17651,"lng":121.544648,"minutes":74,"tier":5},{"id":"spider_艾东小区_浦东","name":"艾东小区","lat":31.18586,"lng":121.527706,"minutes":60,"tier":5},{"id":"spider_紫翠高清苑_浦东","name":"紫翠高清苑","lat":31.169268,"lng":121.547126,"minutes":87,"tier":5},{"id":"spider_莲安东路80弄_浦东","name":"莲安东路80弄","lat":31.180362,"lng":121.558433,"minutes":83,"tier":5},{"id":"spider_天池一村_浦东","name":"天池一村","lat":31.189158,"lng":121.546841,"minutes":65,"tier":5},{"id":"spider_南新二村_浦东","name":"南新二村","lat":31.173669,"lng":121.546629,"minutes":86,"tier":5},{"id":"spider_大华锦绣华城(九街区)_浦东","name":"大华锦绣华城(九街区)","lat":31.18684,"lng":121.537425,"minutes":63,"tier":5},{"id":"spider_海上国际花园(二期)_浦东","name":"海上国际花园(二期)","lat":31.184661,"lng":121.552785,"minutes":73,"tier":5},{"id":"spider_大华锦绣华城(十九街区)(别墅)_浦东","name":"大华锦绣华城(十九街区)(别墅)","lat":31.178847,"lng":121.543216,"minutes":69,"tier":5},{"id":"spider_华佳花园_浦东","name":"华佳花园","lat":31.193442,"lng":121.567355,"minutes":82,"tier":5},{"id":"spider_由由新景苑_浦东","name":"由由新景苑","lat":31.196854,"lng":121.532909,"minutes":75,"tier":5},{"id":"spider_联勤小区_浦东","name":"联勤小区","lat":31.170033,"lng":121.54925,"minutes":85,"tier":5},{"id":"spider_欣顺小区_浦东","name":"欣顺小区","lat":31.172897,"lng":121.545513,"minutes":84,"tier":5},{"id":"spider_芳华路253弄_浦东","name":"芳华路253弄","lat":31.197318,"lng":121.551274,"minutes":67,"tier":5},{"id":"spider_锦三角花园(公寓)_浦东","name":"锦三角花园(公寓)","lat":31.188091,"lng":121.544356,"minutes":60,"tier":5},{"id":"spider_莲怡苑_浦东","name":"莲怡苑","lat":31.185672,"lng":121.565796,"minutes":84,"tier":5},{"id":"spider_白杨小区_浦东","name":"白杨小区","lat":31.194312,"lng":121.562227,"minutes":75,"tier":5},{"id":"spider_杨高南路2877弄_浦东","name":"杨高南路2877弄","lat":31.186993,"lng":121.533727,"minutes":64,"tier":5},{"id":"spider_新花苑_浦东","name":"新花苑","lat":31.195577,"lng":121.551073,"minutes":63,"tier":5},{"id":"spider_紫竹轩_浦东","name":"紫竹轩","lat":31.18739,"lng":121.553926,"minutes":67,"tier":5},{"id":"spider_由由新佳苑_浦东","name":"由由新佳苑","lat":31.192412,"lng":121.534556,"minutes":70,"tier":5},{"id":"spider_大华伊斐墅_浦东","name":"大华伊斐墅","lat":31.174735,"lng":121.52764,"minutes":70,"tier":5},{"id":"spider_连波路228弄_浦东","name":"连波路228弄","lat":31.196237,"lng":121.556668,"minutes":69,"tier":5},{"id":"spider_芳华路188弄_浦东","name":"芳华路188弄","lat":31.196199,"lng":121.551913,"minutes":66,"tier":5},{"id":"spider_由由新邸_浦东","name":"由由新邸","lat":31.191139,"lng":121.527889,"minutes":61,"tier":5},{"id":"spider_虹南小区(浦东)_浦东","name":"虹南小区(浦东)","lat":31.191093,"lng":121.561303,"minutes":79,"tier":5},{"id":"spider_景泰嘉苑_浦东","name":"景泰嘉苑","lat":31.180051,"lng":121.561622,"minutes":78,"tier":5},{"id":"spider_南新六村_浦东","name":"南新六村","lat":31.175694,"lng":121.542758,"minutes":76,"tier":5},{"id":"spider_北蔡苑_浦东","name":"北蔡苑","lat":31.188998,"lng":121.549895,"minutes":66,"tier":5},{"id":"spider_龙科公寓_浦东","name":"龙科公寓","lat":31.195881,"lng":121.560651,"minutes":72,"tier":5},{"id":"spider_芳华小区_浦东","name":"芳华小区","lat":31.196898,"lng":121.55451,"minutes":70,"tier":5},{"id":"spider_德圣苑_浦东","name":"德圣苑","lat":31.186728,"lng":121.553785,"minutes":68,"tier":5},{"id":"spider_德铭苑_浦东","name":"德铭苑","lat":31.181856,"lng":121.565897,"minutes":81,"tier":5},{"id":"spider_苗桐佳苑_浦东","name":"苗桐佳苑","lat":31.198316,"lng":121.547962,"minutes":66,"tier":5},{"id":"spider_大华珞斐墅_浦东","name":"大华珞斐墅","lat":31.186782,"lng":121.538311,"minutes":62,"tier":5},{"id":"spider_北中路278弄_浦东","name":"北中路278弄","lat":31.189586,"lng":121.562289,"minutes":78,"tier":5},{"id":"spider_德祥苑_浦东","name":"德祥苑","lat":31.177645,"lng":121.557828,"minutes":80,"tier":5},{"id":"spider_莲鼎苑_浦东","name":"莲鼎苑","lat":31.182616,"lng":121.566996,"minutes":81,"tier":5},{"id":"spider_莲中路250弄_浦东","name":"莲中路250弄","lat":31.198316,"lng":121.547962,"minutes":66,"tier":5},{"id":"spider_莲安西路65-117号_浦东","name":"莲安西路65-117号","lat":31.186991,"lng":121.560293,"minutes":78,"tier":5},{"id":"spider_金桥爱建园_浦东","name":"金桥爱建园","lat":31.240882,"lng":121.578087,"minutes":62,"tier":5},{"id":"spider_金色碧云_浦东","name":"金色碧云","lat":31.238814,"lng":121.579224,"minutes":64,"tier":5},{"id":"spider_世茂湖滨花园(公寓)_浦东","name":"世茂湖滨花园(公寓)","lat":31.234427,"lng":121.580981,"minutes":79,"tier":5},{"id":"spider_金桥酒店公寓_浦东","name":"金桥酒店公寓","lat":31.243867,"lng":121.588454,"minutes":79,"tier":5},{"id":"spider_云间绿大地_浦东","name":"云间绿大地","lat":31.231231,"lng":121.58358,"minutes":78,"tier":5},{"id":"spider_世茂湖滨花园(别墅)_浦东","name":"世茂湖滨花园(别墅)","lat":31.233087,"lng":121.579705,"minutes":80,"tier":5},{"id":"spider_晓园_浦东","name":"晓园","lat":31.242347,"lng":121.59116,"minutes":84,"tier":5},{"id":"spider_凤凰大厦_浦东","name":"凤凰大厦","lat":31.244703,"lng":121.58751,"minutes":76,"tier":5},{"id":"spider_星云小区_浦东","name":"星云小区","lat":31.231279,"lng":121.574126,"minutes":83,"tier":5},{"id":"spider_金浦小区(金桥)_浦东","name":"金浦小区(金桥)","lat":31.238306,"lng":121.606467,"minutes":92,"tier":5},{"id":"spider_阳光苑民同路176弄_浦东","name":"阳光苑民同路176弄","lat":31.276032,"lng":121.655417,"minutes":89,"tier":5},{"id":"spider_星金家园_浦东","name":"星金家园","lat":31.279222,"lng":121.683503,"minutes":98,"tier":5},{"id":"spider_金海华城华康佳苑_浦东","name":"金海华城华康佳苑","lat":31.268975,"lng":121.694777,"minutes":102,"tier":5},{"id":"spider_申华小区_浦东","name":"申华小区","lat":31.274127,"lng":121.658002,"minutes":91,"tier":5},{"id":"spider_极景易家_浦东","name":"极景易家","lat":31.278976,"lng":121.65878,"minutes":93,"tier":5},{"id":"spider_阳光苑民同路10弄40弄_浦东","name":"阳光苑民同路10弄40弄","lat":31.277511,"lng":121.654748,"minutes":95,"tier":5},{"id":"spider_万科第五园_浦东","name":"万科第五园","lat":31.272435,"lng":121.67158,"minutes":88,"tier":5},{"id":"spider_爱法花园(二期)_浦东","name":"爱法花园(二期)","lat":31.273486,"lng":121.659977,"minutes":93,"tier":5},{"id":"spider_曹路家苑_浦东","name":"曹路家苑","lat":31.277773,"lng":121.659481,"minutes":88,"tier":5},{"id":"spider_丰怡苑_浦东","name":"丰怡苑","lat":31.270798,"lng":121.687884,"minutes":90,"tier":5},{"id":"spider_星晓家园_浦东","name":"星晓家园","lat":31.281389,"lng":121.678797,"minutes":99,"tier":5},{"id":"spider_金钻苑南区_浦东","name":"金钻苑南区","lat":31.28046,"lng":121.684993,"minutes":101,"tier":5},{"id":"spider_金群苑北区_浦东","name":"金群苑北区","lat":31.290088,"lng":121.671342,"minutes":99,"tier":5},{"id":"spider_龚华新村_浦东","name":"龚华新村","lat":31.265399,"lng":121.690471,"minutes":98,"tier":5},{"id":"spider_新芳邻_浦东","name":"新芳邻","lat":31.275589,"lng":121.656771,"minutes":92,"tier":5},{"id":"spider_民胜苑_浦东","name":"民胜苑","lat":31.276904,"lng":121.659475,"minutes":90,"tier":5},{"id":"spider_悦天地_浦东","name":"悦天地","lat":31.170236,"lng":121.712875,"minutes":114,"tier":5},{"id":"spider_浦东中惠棠里_浦东","name":"浦东中惠棠里","lat":31.290912,"lng":121.675052,"minutes":103,"tier":5},{"id":"spider_园西小区_浦东","name":"园西小区","lat":31.190186,"lng":121.695747,"minutes":103,"tier":5},{"id":"spider_桃园公寓(川沙)_浦东","name":"桃园公寓(川沙)","lat":31.196922,"lng":121.705508,"minutes":111,"tier":5},{"id":"spider_鼎鑫名流世家_浦东","name":"鼎鑫名流世家","lat":31.195177,"lng":121.708092,"minutes":111,"tier":5},{"id":"spider_绿海家园_浦东","name":"绿海家园","lat":31.190356,"lng":121.713475,"minutes":109,"tier":5},{"id":"spider_临河小区_浦东","name":"临河小区","lat":31.198664,"lng":121.699486,"minutes":110,"tier":5},{"id":"spider_青厦小区_浦东","name":"青厦小区","lat":31.200164,"lng":121.69241,"minutes":105,"tier":5},{"id":"spider_妙境一村_浦东","name":"妙境一村","lat":31.08222,"lng":121.670589,"minutes":119,"tier":5},{"id":"spider_妙栏小区_浦东","name":"妙栏小区","lat":31.189512,"lng":121.692286,"minutes":110,"tier":5},{"id":"spider_鑫龙佳苑_浦东","name":"鑫龙佳苑","lat":31.197879,"lng":121.700139,"minutes":114,"tier":5},{"id":"spider_舒馨北苑_浦东","name":"舒馨北苑","lat":31.195578,"lng":121.674459,"minutes":98,"tier":5},{"id":"spider_沙田公寓_浦东","name":"沙田公寓","lat":31.198032,"lng":121.683701,"minutes":91,"tier":5},{"id":"spider_凯佳公寓一期_浦东","name":"凯佳公寓一期","lat":31.1834,"lng":121.700697,"minutes":100,"tier":5},{"id":"spider_妙栏路392弄_浦东","name":"妙栏路392弄","lat":31.188737,"lng":121.693667,"minutes":104,"tier":5},{"id":"spider_万馨佳园_浦东","name":"万馨佳园","lat":31.195663,"lng":121.676736,"minutes":94,"tier":5},{"id":"spider_南桥小区_浦东","name":"南桥小区","lat":31.191108,"lng":121.705636,"minutes":107,"tier":5},{"id":"spider_川北小区_浦东","name":"川北小区","lat":31.201177,"lng":121.703491,"minutes":111,"tier":5},{"id":"spider_运通路728弄_浦东","name":"运通路728弄","lat":31.207042,"lng":121.706413,"minutes":122,"tier":5},{"id":"spider_妙境三村_浦东","name":"妙境三村","lat":31.193215,"lng":121.697737,"minutes":102,"tier":5},{"id":"spider_妙虹新苑_浦东","name":"妙虹新苑","lat":31.159027,"lng":121.727001,"minutes":145,"tier":5},{"id":"spider_月亮湾园_浦东","name":"月亮湾园","lat":31.197744,"lng":121.698803,"minutes":108,"tier":5},{"id":"spider_城丰路15弄_浦东","name":"城丰路15弄","lat":31.19411,"lng":121.694691,"minutes":109,"tier":5},{"id":"spider_江晖苑_浦东","name":"江晖苑","lat":31.178152,"lng":121.741972,"minutes":134,"tier":5},{"id":"spider_新德佳苑_浦东","name":"新德佳苑","lat":31.195237,"lng":121.67313,"minutes":101,"tier":5},{"id":"spider_玉宇新苑_浦东","name":"玉宇新苑","lat":31.191736,"lng":121.687735,"minutes":109,"tier":5},{"id":"spider_上浦小区_浦东","name":"上浦小区","lat":31.198149,"lng":121.700841,"minutes":115,"tier":5},{"id":"spider_界龙新世纪公寓_浦东","name":"界龙新世纪公寓","lat":31.199469,"lng":121.700295,"minutes":111,"tier":5},{"id":"spider_晨光公寓_浦东","name":"晨光公寓","lat":31.198642,"lng":121.687045,"minutes":96,"tier":5},{"id":"spider_龙馨华庭_浦东","name":"龙馨华庭","lat":31.156868,"lng":121.721242,"minutes":129,"tier":5},{"id":"spider_百欣苑_浦东","name":"百欣苑","lat":31.17477,"lng":121.757152,"minutes":131,"tier":5},{"id":"spider_海霞佳苑_浦东","name":"海霞佳苑","lat":31.212848,"lng":121.688319,"minutes":106,"tier":5},{"id":"spider_新德路506弄_浦东","name":"新德路506弄","lat":31.198491,"lng":121.694893,"minutes":108,"tier":5},{"id":"spider_瀚龙苑_浦东","name":"瀚龙苑","lat":31.198436,"lng":121.686744,"minutes":96,"tier":5},{"id":"spider_舜川公寓_浦东","name":"舜川公寓","lat":31.202423,"lng":121.71129,"minutes":111,"tier":5},{"id":"spider_川虹新苑_浦东","name":"川虹新苑","lat":31.210386,"lng":121.636523,"minutes":100,"tier":5},{"id":"spider_华川家园_浦东","name":"华川家园","lat":31.18569,"lng":121.718425,"minutes":114,"tier":5},{"id":"spider_金湾佳园_浦东","name":"金湾佳园","lat":31.144224,"lng":121.759204,"minutes":135,"tier":5},{"id":"spider_和憬家园_浦东","name":"和憬家园","lat":31.200265,"lng":121.689963,"minutes":101,"tier":5},{"id":"spider_临园小区_浦东","name":"临园小区","lat":31.193965,"lng":121.698369,"minutes":104,"tier":5},{"id":"spider_东亚启航公馆_浦东","name":"东亚启航公馆","lat":31.152551,"lng":121.752274,"minutes":134,"tier":5},{"id":"spider_银龙小区_浦东","name":"银龙小区","lat":31.199136,"lng":121.678399,"minutes":93,"tier":5},{"id":"spider_顺馨佳园_浦东","name":"顺馨佳园","lat":31.196098,"lng":121.68142,"minutes":87,"tier":5},{"id":"spider_欧泊圣堡苑_浦东","name":"欧泊圣堡苑","lat":31.173196,"lng":121.672912,"minutes":114,"tier":5},{"id":"spider_恒纬家苑_浦东","name":"恒纬家苑","lat":31.153795,"lng":121.757328,"minutes":126,"tier":5},{"id":"spider_妙城公寓_浦东","name":"妙城公寓","lat":31.19345,"lng":121.697647,"minutes":102,"tier":5},{"id":"spider_新生苑_浦东","name":"新生苑","lat":31.178583,"lng":121.749568,"minutes":124,"tier":5},{"id":"spider_龙馨公寓_浦东","name":"龙馨公寓","lat":31.183263,"lng":121.711918,"minutes":115,"tier":5},{"id":"spider_东都豪苑_浦东","name":"东都豪苑","lat":31.165988,"lng":121.736913,"minutes":132,"tier":5},{"id":"spider_凌港城_浦东","name":"凌港城","lat":31.174805,"lng":121.738517,"minutes":125,"tier":5},{"id":"spider_新德路365弄小区_浦东","name":"新德路365弄小区","lat":31.201123,"lng":121.701541,"minutes":107,"tier":5},{"id":"spider_东方城市绿洲_浦东","name":"东方城市绿洲","lat":31.194302,"lng":121.694025,"minutes":106,"tier":5},{"id":"spider_妙境家园_浦东","name":"妙境家园","lat":31.190692,"lng":121.700511,"minutes":101,"tier":5},{"id":"spider_华港花园_浦东","name":"华港花园","lat":31.201395,"lng":121.689091,"minutes":103,"tier":5},{"id":"spider_川沙新川路190弄_浦东","name":"川沙新川路190弄","lat":31.198425,"lng":121.709238,"minutes":123,"tier":5},{"id":"spider_大洪佳苑_浦东","name":"大洪佳苑","lat":31.195544,"lng":121.714944,"minutes":113,"tier":5},{"id":"spider_德川新苑_浦东","name":"德川新苑","lat":31.197717,"lng":121.684173,"minutes":95,"tier":5},{"id":"spider_曙光东苑_浦东","name":"曙光东苑","lat":31.194945,"lng":121.710154,"minutes":115,"tier":5},{"id":"spider_妙境路395弄_浦东","name":"妙境路395弄","lat":31.194461,"lng":121.69319,"minutes":105,"tier":5},{"id":"spider_佳洲欣苑_浦东","name":"佳洲欣苑","lat":31.194484,"lng":121.691621,"minutes":105,"tier":5},{"id":"spider_馨汇佳苑_浦东","name":"馨汇佳苑","lat":31.183044,"lng":121.715128,"minutes":118,"tier":5},{"id":"spider_华沙一村_浦东","name":"华沙一村","lat":31.195466,"lng":121.698242,"minutes":107,"tier":5},{"id":"spider_钻石苑_浦东","name":"钻石苑","lat":31.190696,"lng":121.694853,"minutes":110,"tier":5},{"id":"spider_城西小区_浦东","name":"城西小区","lat":31.202505,"lng":121.697344,"minutes":107,"tier":5},{"id":"spider_北城小区_浦东","name":"北城小区","lat":31.19932,"lng":121.697764,"minutes":107,"tier":5},{"id":"spider_华天小区_浦东","name":"华天小区","lat":31.199216,"lng":121.692479,"minutes":104,"tier":5},{"id":"spider_玉宇小区_浦东","name":"玉宇小区","lat":31.192157,"lng":121.691234,"minutes":108,"tier":5},{"id":"spider_南桥路51弄_浦东","name":"南桥路51弄","lat":31.156481,"lng":121.543532,"minutes":78,"tier":5},{"id":"spider_王桥苑_浦东","name":"王桥苑","lat":31.188965,"lng":121.695628,"minutes":101,"tier":5},{"id":"spider_兴东名苑_浦东","name":"兴东名苑","lat":31.202198,"lng":121.693633,"minutes":109,"tier":5},{"id":"spider_东锦苑_浦东","name":"东锦苑","lat":31.184158,"lng":121.695657,"minutes":100,"tier":5},{"id":"spider_同济东时区_浦东","name":"同济东时区","lat":31.152439,"lng":121.676424,"minutes":100,"tier":5},{"id":"spider_新川路300弄_浦东","name":"新川路300弄","lat":31.193076,"lng":121.695318,"minutes":108,"tier":5},{"id":"spider_恒乐苑_浦东","name":"恒乐苑","lat":31.196799,"lng":121.694525,"minutes":102,"tier":5},{"id":"spider_华邦佳苑_浦东","name":"华邦佳苑","lat":31.207917,"lng":121.719754,"minutes":115,"tier":5},{"id":"spider_玉兰苑(川沙)_浦东","name":"玉兰苑(川沙)","lat":31.19897,"lng":121.6916,"minutes":103,"tier":5},{"id":"spider_东方城市豪苑_浦东","name":"东方城市豪苑","lat":31.194215,"lng":121.702403,"minutes":106,"tier":5},{"id":"spider_思凡馨苑_浦东","name":"思凡馨苑","lat":31.143248,"lng":121.752099,"minutes":132,"tier":5},{"id":"spider_绿地公寓(浦东)_浦东","name":"绿地公寓(浦东)","lat":31.199005,"lng":121.68708,"minutes":96,"tier":5},{"id":"spider_盛世联弈苑_浦东","name":"盛世联弈苑","lat":31.155076,"lng":121.757347,"minutes":129,"tier":5},{"id":"spider_乔家浜路21弄_浦东","name":"乔家浜路21弄","lat":31.201791,"lng":121.709928,"minutes":115,"tier":5},{"id":"spider_新建路16弄_浦东","name":"新建路16弄","lat":31.176746,"lng":121.749292,"minutes":119,"tier":5},{"id":"spider_申华公寓_浦东","name":"申华公寓","lat":31.19801,"lng":121.686807,"minutes":97,"tier":5},{"id":"spider_晨阳小区_浦东","name":"晨阳小区","lat":31.101533,"lng":121.589818,"minutes":103,"tier":5},{"id":"spider_新德五村_浦东","name":"新德五村","lat":31.210188,"lng":121.634159,"minutes":97,"tier":5},{"id":"spider_新川小区_浦东","name":"新川小区","lat":31.198048,"lng":121.707025,"minutes":116,"tier":5},{"id":"spider_普陀新村_浦东","name":"普陀新村","lat":31.179273,"lng":121.719243,"minutes":126,"tier":5},{"id":"spider_公益路小区西苑_浦东","name":"公益路小区西苑","lat":31.176164,"lng":121.746307,"minutes":122,"tier":5},{"id":"spider_晴川佳苑_浦东","name":"晴川佳苑","lat":31.195073,"lng":121.68663,"minutes":97,"tier":5},{"id":"spider_南市街小区_浦东","name":"南市街小区","lat":31.197041,"lng":121.706872,"minutes":110,"tier":5},{"id":"spider_云川公寓_浦东","name":"云川公寓","lat":31.202371,"lng":121.699691,"minutes":120,"tier":5},{"id":"spider_曙光苑_浦东","name":"曙光苑","lat":31.196503,"lng":121.707565,"minutes":110,"tier":5},{"id":"spider_佳运公寓_浦东","name":"佳运公寓","lat":31.202329,"lng":121.707774,"minutes":121,"tier":5},{"id":"spider_思凡花苑二街坊_浦东","name":"思凡花苑二街坊","lat":31.146318,"lng":121.751643,"minutes":135,"tier":5},{"id":"spider_新德公寓(浦东)_浦东","name":"新德公寓(浦东)","lat":31.197589,"lng":121.691825,"minutes":104,"tier":5},{"id":"spider_皇冠小区_浦东","name":"皇冠小区","lat":31.176066,"lng":121.746224,"minutes":122,"tier":5},{"id":"spider_川沙公寓_浦东","name":"川沙公寓","lat":31.192591,"lng":121.692474,"minutes":108,"tier":5},{"id":"spider_新德路341弄_浦东","name":"新德路341弄","lat":31.203801,"lng":121.705054,"minutes":120,"tier":5},{"id":"spider_鑫唐绿波庭_浦东","name":"鑫唐绿波庭","lat":31.155708,"lng":121.750912,"minutes":131,"tier":5},{"id":"spider_西市街175弄_浦东","name":"西市街175弄","lat":31.201684,"lng":121.705433,"minutes":115,"tier":5},{"id":"spider_曙光路25弄_浦东","name":"曙光路25弄","lat":31.195871,"lng":121.712294,"minutes":115,"tier":5},{"id":"spider_金厦苑_浦东","name":"金厦苑","lat":31.066081,"lng":121.579314,"minutes":100,"tier":5},{"id":"spider_明光苑_浦东","name":"明光苑","lat":31.214698,"lng":121.62067,"minutes":90,"tier":5},{"id":"spider_思凡花苑一街坊_浦东","name":"思凡花苑一街坊","lat":31.146889,"lng":121.754113,"minutes":127,"tier":5},{"id":"spider_贤居苑_浦东","name":"贤居苑","lat":31.202329,"lng":121.707774,"minutes":121,"tier":5},{"id":"spider_盛泰家园_浦东","name":"盛泰家园","lat":31.170976,"lng":121.743854,"minutes":130,"tier":5},{"id":"spider_妙境路627弄_浦东","name":"妙境路627弄","lat":31.195406,"lng":121.698528,"minutes":109,"tier":5},{"id":"spider_中市街66弄_浦东","name":"中市街66弄","lat":31.2002,"lng":121.6957,"minutes":105,"tier":5},{"id":"spider_金星小区_浦东","name":"金星小区","lat":31.195359,"lng":121.707271,"minutes":110,"tier":5},{"id":"spider_华茂苑_浦东","name":"华茂苑","lat":31.204774,"lng":121.703862,"minutes":119,"tier":5},{"id":"spider_施新路773弄_浦东","name":"施新路773弄","lat":31.153912,"lng":121.763083,"minutes":136,"tier":5},{"id":"spider_妙龙小区_浦东","name":"妙龙小区","lat":31.190408,"lng":121.695254,"minutes":104,"tier":5},{"id":"spider_海霞新苑_浦东","name":"海霞新苑","lat":31.182054,"lng":121.72169,"minutes":121,"tier":5},{"id":"spider_新德路379弄-385号_浦东","name":"新德路379弄-385号","lat":31.198679,"lng":121.698101,"minutes":107,"tier":5},{"id":"spider_陆家嘴锦绣观澜_浦东","name":"陆家嘴锦绣观澜","lat":31.185541,"lng":121.705664,"minutes":108,"tier":5},{"id":"spider_新德路502弄_浦东","name":"新德路502弄","lat":31.203132,"lng":121.700167,"minutes":120,"tier":5},{"id":"spider_东城壕路8弄_浦东","name":"东城壕路8弄","lat":31.202329,"lng":121.707774,"minutes":121,"tier":5},{"id":"spider_千秋嘉苑_浦东","name":"千秋嘉苑","lat":31.327374,"lng":121.625113,"minutes":133,"tier":5},{"id":"spider_高行银杏苑_浦东","name":"高行银杏苑","lat":31.292942,"lng":121.611559,"minutes":254,"tier":5},{"id":"spider_金地未未来_浦东","name":"金地未未来","lat":31.316599,"lng":121.616423,"minutes":263,"tier":5},{"id":"spider_东方城市华庭_浦东","name":"东方城市华庭","lat":31.292334,"lng":121.588514,"minutes":88,"tier":5},{"id":"spider_浦江东旭公寓(669弄1-109号)_浦东","name":"浦江东旭公寓(669弄1-109号)","lat":31.295854,"lng":121.589492,"minutes":91,"tier":5},{"id":"spider_宜嘉苑_浦东","name":"宜嘉苑","lat":31.289173,"lng":121.610086,"minutes":256,"tier":5},{"id":"spider_幸福小镇_浦东","name":"幸福小镇","lat":31.273962,"lng":121.52018,"minutes":66,"tier":5},{"id":"spider_华高苑_浦东","name":"华高苑","lat":31.286749,"lng":121.610531,"minutes":96,"tier":5},{"id":"spider_华高新苑_浦东","name":"华高新苑","lat":31.283312,"lng":121.611135,"minutes":89,"tier":5},{"id":"spider_高行绿洲(五期)_浦东","name":"高行绿洲(五期)","lat":31.323313,"lng":121.619092,"minutes":118,"tier":5},{"id":"spider_新城碧翠_浦东","name":"新城碧翠","lat":31.310909,"lng":121.590491,"minutes":92,"tier":5},{"id":"spider_高行绿洲(六期)_浦东","name":"高行绿洲(六期)","lat":31.32218,"lng":121.61782,"minutes":272,"tier":5},{"id":"spider_东源名都_浦东","name":"东源名都","lat":31.279071,"lng":121.615933,"minutes":81,"tier":5},{"id":"spider_盛世东苑_浦东","name":"盛世东苑","lat":31.336939,"lng":121.617514,"minutes":271,"tier":5},{"id":"spider_华高庭园_浦东","name":"华高庭园","lat":31.288703,"lng":121.617557,"minutes":97,"tier":5},{"id":"spider_六团中心村_浦东","name":"六团中心村","lat":31.161213,"lng":121.730659,"minutes":145,"tier":5},{"id":"spider_东门街_浦东","name":"东门街","lat":31.202404,"lng":121.71381,"minutes":116,"tier":5},{"id":"spider_乐丰路15弄_浦东","name":"乐丰路15弄","lat":31.202329,"lng":121.707774,"minutes":121,"tier":5},{"id":"spider_扬盛佳苑_浦东","name":"扬盛佳苑","lat":31.317809,"lng":121.638517,"minutes":120,"tier":5},{"id":"spider_华高二村_浦东","name":"华高二村","lat":31.285348,"lng":121.619834,"minutes":97,"tier":5},{"id":"spider_华高一村_浦东","name":"华高一村","lat":31.284751,"lng":121.617042,"minutes":100,"tier":5},{"id":"spider_春江花悦园_浦东","name":"春江花悦园","lat":31.294881,"lng":121.614499,"minutes":259,"tier":5},{"id":"spider_森兰名轩_浦东","name":"森兰名轩","lat":31.291466,"lng":121.592637,"minutes":89,"tier":5},{"id":"spider_新高苑(三期)_浦东","name":"新高苑(三期)","lat":31.294572,"lng":121.623935,"minutes":100,"tier":5},{"id":"spider_汇郡海棠苑_浦东","name":"汇郡海棠苑","lat":31.304712,"lng":121.585238,"minutes":98,"tier":5},{"id":"spider_紫翠苑_浦东","name":"紫翠苑","lat":31.313609,"lng":121.625865,"minutes":118,"tier":5},{"id":"spider_新高苑(二期)_浦东","name":"新高苑(二期)","lat":31.295776,"lng":121.627811,"minutes":109,"tier":5},{"id":"spider_新高苑(一期)_浦东","name":"新高苑(一期)","lat":31.295394,"lng":121.624239,"minutes":102,"tier":5},{"id":"spider_森兰名佳_浦东","name":"森兰名佳","lat":31.322055,"lng":121.595846,"minutes":105,"tier":5},{"id":"spider_高行绿洲(四期)_浦东","name":"高行绿洲(四期)","lat":31.33034,"lng":121.594618,"minutes":104,"tier":5},{"id":"spider_东靖苑_浦东","name":"东靖苑","lat":31.294656,"lng":121.584251,"minutes":96,"tier":5},{"id":"spider_海韵茗庭_浦东","name":"海韵茗庭","lat":31.299273,"lng":121.58485,"minutes":96,"tier":5},{"id":"spider_景源佳苑_浦东","name":"景源佳苑","lat":31.290184,"lng":121.577569,"minutes":83,"tier":5},{"id":"spider_仁恒森兰雅苑(三期)_浦东","name":"仁恒森兰雅苑(三期)","lat":31.305077,"lng":121.600775,"minutes":248,"tier":5},{"id":"spider_浦煤新村_浦东","name":"浦煤新村","lat":31.296084,"lng":121.57734,"minutes":94,"tier":5},{"id":"spider_浦江东旭公寓1443弄_浦东","name":"浦江东旭公寓1443弄","lat":31.296367,"lng":121.585201,"minutes":97,"tier":5},{"id":"spider_东旭雅苑_浦东","name":"东旭雅苑","lat":31.300329,"lng":121.58521,"minutes":94,"tier":5},{"id":"spider_汇郡米兰苑_浦东","name":"汇郡米兰苑","lat":31.299029,"lng":121.58155,"minutes":101,"tier":5},{"id":"spider_新高苑(四期)_浦东","name":"新高苑(四期)","lat":31.291737,"lng":121.624154,"minutes":100,"tier":5},{"id":"spider_欣连佳苑_浦东","name":"欣连佳苑","lat":31.332748,"lng":121.620821,"minutes":272,"tier":5},{"id":"spider_杨园一村_浦东","name":"杨园一村","lat":31.319728,"lng":121.631627,"minutes":114,"tier":5},{"id":"spider_高申南苑_浦东","name":"高申南苑","lat":31.304149,"lng":121.58778,"minutes":89,"tier":5},{"id":"spider_金高路220弄_浦东","name":"金高路220弄","lat":31.297071,"lng":121.610913,"minutes":260,"tier":5},{"id":"spider_东沟七村_浦东","name":"东沟七村","lat":31.296578,"lng":121.578683,"minutes":99,"tier":5},{"id":"spider_东力新村_浦东","name":"东力新村","lat":31.290364,"lng":121.630681,"minutes":101,"tier":5},{"id":"spider_高申北苑_浦东","name":"高申北苑","lat":31.302134,"lng":121.585257,"minutes":91,"tier":5},{"id":"spider_龙腾阁小区_浦东","name":"龙腾阁小区","lat":31.307466,"lng":121.643852,"minutes":128,"tier":5},{"id":"spider_远洋财富中心_浦东","name":"远洋财富中心","lat":31.317531,"lng":121.610533,"minutes":261,"tier":5},{"id":"spider_仁恒森兰雅苑mini公馆_浦东","name":"仁恒森兰雅苑mini公馆","lat":31.301727,"lng":121.59668,"minutes":100,"tier":5},{"id":"spider_森兰壹公馆_浦东","name":"森兰壹公馆","lat":31.318893,"lng":121.594231,"minutes":104,"tier":5},{"id":"spider_金沁苑_浦东","name":"金沁苑","lat":31.084325,"lng":121.604211,"minutes":89,"tier":5},{"id":"spider_昱星家园_浦东","name":"昱星家园","lat":31.085673,"lng":121.598449,"minutes":94,"tier":5},{"id":"spider_长泰东郊御园(别墅)_浦东","name":"长泰东郊御园(别墅)","lat":31.029339,"lng":121.593683,"minutes":103,"tier":5},{"id":"spider_汇康锦苑_浦东","name":"汇康锦苑","lat":31.074591,"lng":121.596557,"minutes":102,"tier":5},{"id":"spider_聚航苑_浦东","name":"聚航苑","lat":31.02644,"lng":121.584594,"minutes":110,"tier":5},{"id":"spider_海洲桃花园二期_浦东","name":"海洲桃花园二期","lat":31.039173,"lng":121.604205,"minutes":131,"tier":5},{"id":"spider_聚鑫苑_浦东","name":"聚鑫苑","lat":31.034555,"lng":121.596453,"minutes":89,"tier":5},{"id":"spider_沉香苑一街坊_浦东","name":"沉香苑一街坊","lat":31.077947,"lng":121.59501,"minutes":94,"tier":5},{"id":"spider_环镇东路99弄_浦东","name":"环镇东路99弄","lat":30.884388,"lng":121.408648,"minutes":146,"tier":5},{"id":"spider_鹤沙航城航武嘉园鹤韵路549弄_浦东","name":"鹤沙航城航武嘉园鹤韵路549弄","lat":31.078919,"lng":121.599979,"minutes":90,"tier":5},{"id":"spider_云麓里_浦东","name":"云麓里","lat":31.046327,"lng":121.590507,"minutes":99,"tier":5},{"id":"spider_金地艺华年（公寓）_浦东","name":"金地艺华年（公寓）","lat":31.044816,"lng":121.589221,"minutes":104,"tier":5},{"id":"spider_金地艺华年(别墅)_浦东","name":"金地艺华年(别墅)","lat":31.044816,"lng":121.589221,"minutes":104,"tier":5},{"id":"spider_海鑫苑_浦东","name":"海鑫苑","lat":31.034359,"lng":121.592357,"minutes":98,"tier":5},{"id":"spider_恒福家园_浦东","name":"恒福家园","lat":31.081048,"lng":121.596469,"minutes":90,"tier":5},{"id":"spider_森兰星河湾_浦东","name":"森兰星河湾","lat":31.293576,"lng":121.600587,"minutes":247,"tier":5},{"id":"spider_逸墅新苑_浦东","name":"逸墅新苑","lat":31.329738,"lng":121.632497,"minutes":138,"tier":5},{"id":"spider_长泰东郊御园(公寓)_浦东","name":"长泰东郊御园(公寓)","lat":31.030582,"lng":121.594152,"minutes":101,"tier":5},{"id":"spider_航欣苑_浦东","name":"航欣苑","lat":30.960559,"lng":121.501542,"minutes":106,"tier":5},{"id":"spider_富鑫苑_浦东","name":"富鑫苑","lat":31.035654,"lng":121.594901,"minutes":96,"tier":5},{"id":"spider_鹤沙航城汇诚佳苑_浦东","name":"鹤沙航城汇诚佳苑","lat":31.075428,"lng":121.607338,"minutes":83,"tier":5},{"id":"spider_鹤沙航城和美苑_浦东","name":"鹤沙航城和美苑","lat":31.039436,"lng":121.593362,"minutes":91,"tier":5},{"id":"spider_百联公寓_浦东","name":"百联公寓","lat":31.0351,"lng":121.599221,"minutes":93,"tier":5},{"id":"spider_鹤鸣新苑一村_浦东","name":"鹤鸣新苑一村","lat":31.047359,"lng":121.588422,"minutes":99,"tier":5},{"id":"spider_沉香苑二街坊_浦东","name":"沉香苑二街坊","lat":31.076567,"lng":121.598138,"minutes":89,"tier":5},{"id":"spider_立地东方苑_浦东","name":"立地东方苑","lat":30.884388,"lng":121.408648,"minutes":146,"tier":5},{"id":"spider_新黄浦南馨佳苑_浦东","name":"新黄浦南馨佳苑","lat":31.081955,"lng":121.596089,"minutes":85,"tier":5},{"id":"spider_昱星家园西区_浦东","name":"昱星家园西区","lat":31.082483,"lng":121.59061,"minutes":97,"tier":5},{"id":"spider_沪航公寓_浦东","name":"沪航公寓","lat":31.027936,"lng":121.59496,"minutes":101,"tier":5},{"id":"spider_亿联中心_浦东","name":"亿联中心","lat":31.036694,"lng":121.58324,"minutes":132,"tier":5},{"id":"spider_枫林雅苑_浦东","name":"枫林雅苑","lat":31.036558,"lng":121.599368,"minutes":95,"tier":5},{"id":"spider_金地褐石公馆_浦东","name":"金地褐石公馆","lat":31.046865,"lng":121.591674,"minutes":96,"tier":5},{"id":"spider_牡丹路186弄_浦东","name":"牡丹路186弄","lat":31.209988,"lng":121.550502,"minutes":72,"tier":5},{"id":"spider_兰花小区_浦东","name":"兰花小区","lat":31.207808,"lng":121.550809,"minutes":70,"tier":5},{"id":"spider_大唐盛世花园（二期）_浦东","name":"大唐盛世花园（二期）","lat":31.207905,"lng":121.561049,"minutes":69,"tier":5},{"id":"spider_环龙新纪园_浦东","name":"环龙新纪园","lat":31.211723,"lng":121.560372,"minutes":67,"tier":5},{"id":"spider_浦东星河湾_浦东","name":"浦东星河湾","lat":31.196256,"lng":121.540419,"minutes":73,"tier":5},{"id":"spider_海桐小区_浦东","name":"海桐小区","lat":31.207042,"lng":121.554994,"minutes":67,"tier":5},{"id":"spider_绿缘公寓_浦东","name":"绿缘公寓","lat":31.211286,"lng":121.552146,"minutes":70,"tier":5},{"id":"spider_陆家嘴锦绣前城_浦东","name":"陆家嘴锦绣前城","lat":31.198378,"lng":121.538646,"minutes":83,"tier":5},{"id":"spider_四季全景台_浦东","name":"四季全景台","lat":31.213701,"lng":121.55615,"minutes":74,"tier":5},{"id":"spider_梅花苑_浦东","name":"梅花苑","lat":31.212019,"lng":121.54428,"minutes":77,"tier":5},{"id":"spider_花木苑_浦东","name":"花木苑","lat":31.213678,"lng":121.558249,"minutes":71,"tier":5},{"id":"spider_建华公寓_浦东","name":"建华公寓","lat":31.212771,"lng":121.552155,"minutes":72,"tier":5},{"id":"spider_金桂小区_浦东","name":"金桂小区","lat":31.211582,"lng":121.552909,"minutes":71,"tier":5},{"id":"spider_锦绣前程阳光苑_浦东","name":"锦绣前程阳光苑","lat":31.204145,"lng":121.550099,"minutes":71,"tier":5},{"id":"spider_花木绿城锦绣兰庭_浦东","name":"花木绿城锦绣兰庭","lat":31.207551,"lng":121.550506,"minutes":70,"tier":5},{"id":"spider_雍景台_浦东","name":"雍景台","lat":31.214346,"lng":121.556129,"minutes":74,"tier":5},{"id":"spider_牡丹路399弄_浦东","name":"牡丹路399弄","lat":31.211248,"lng":121.554726,"minutes":73,"tier":5},{"id":"spider_牡丹苑(浦东)_浦东","name":"牡丹苑(浦东)","lat":31.208533,"lng":121.544939,"minutes":79,"tier":5},{"id":"spider_大唐盛世花园(三期)_浦东","name":"大唐盛世花园(三期)","lat":31.208797,"lng":121.563345,"minutes":68,"tier":5},{"id":"spider_玉兰路99弄_浦东","name":"玉兰路99弄","lat":31.206366,"lng":121.550631,"minutes":72,"tier":5},{"id":"spider_大唐盛世花园（一期）_浦东","name":"大唐盛世花园（一期）","lat":31.209966,"lng":121.557827,"minutes":69,"tier":5},{"id":"spider_瑞达新苑_浦东","name":"瑞达新苑","lat":31.215427,"lng":121.567155,"minutes":75,"tier":5},{"id":"spider_玉兰路81弄_浦东","name":"玉兰路81弄","lat":31.209926,"lng":121.554408,"minutes":71,"tier":5},{"id":"spider_六街坊小区_浦东","name":"六街坊小区","lat":31.210842,"lng":121.556566,"minutes":72,"tier":5},{"id":"spider_银良公寓_浦东","name":"银良公寓","lat":31.206247,"lng":121.551502,"minutes":71,"tier":5},{"id":"spider_惠康苑_浦东","name":"惠康苑","lat":31.073241,"lng":121.742976,"minutes":118,"tier":5},{"id":"spider_丽水雅苑北苑_浦东","name":"丽水雅苑北苑","lat":31.188549,"lng":121.575205,"minutes":87,"tier":5},{"id":"spider_布鲁斯小镇(二期)_浦东","name":"布鲁斯小镇(二期)","lat":31.038358,"lng":121.770863,"minutes":123,"tier":5},{"id":"spider_民乐城兰丽苑(西苑)_浦东","name":"民乐城兰丽苑(西苑)","lat":31.074509,"lng":121.750508,"minutes":117,"tier":5},{"id":"spider_昌乐公寓_浦东","name":"昌乐公寓","lat":31.071297,"lng":121.716776,"minutes":120,"tier":5},{"id":"spider_民乐城汇雅苑北苑_浦东","name":"民乐城汇雅苑北苑","lat":31.07559,"lng":121.754932,"minutes":120,"tier":5},{"id":"spider_荡湾新村_浦东","name":"荡湾新村","lat":31.046948,"lng":121.77001,"minutes":113,"tier":5},{"id":"spider_丽水雅苑_浦东","name":"丽水雅苑","lat":31.060831,"lng":121.763284,"minutes":108,"tier":5},{"id":"spider_文化新村(惠南)_浦东","name":"文化新村(惠南)","lat":31.054522,"lng":121.755421,"minutes":105,"tier":5},{"id":"spider_锦绣汇丽苑_浦东","name":"锦绣汇丽苑","lat":31.048772,"lng":121.767161,"minutes":113,"tier":5},{"id":"spider_德盈佳园_浦东","name":"德盈佳园","lat":31.061349,"lng":121.804958,"minutes":131,"tier":5},{"id":"spider_惠益新苑南苑_浦东","name":"惠益新苑南苑","lat":31.061535,"lng":121.743288,"minutes":132,"tier":5},{"id":"spider_鑫通公寓_浦东","name":"鑫通公寓","lat":31.052924,"lng":121.762957,"minutes":98,"tier":5},{"id":"spider_听潮六村_浦东","name":"听潮六村","lat":31.049873,"lng":121.751026,"minutes":116,"tier":5},{"id":"spider_福汇二村_浦东","name":"福汇二村","lat":31.043131,"lng":121.761531,"minutes":116,"tier":5},{"id":"spider_惠益新苑_浦东","name":"惠益新苑","lat":31.063581,"lng":121.743859,"minutes":118,"tier":5},{"id":"spider_东城时代华庭_浦东","name":"东城时代华庭","lat":31.055543,"lng":121.777311,"minutes":118,"tier":5},{"id":"spider_跃进路48弄_浦东","name":"跃进路48弄","lat":31.052402,"lng":121.761386,"minutes":101,"tier":5},{"id":"spider_碧桂园天悦_浦东","name":"碧桂园天悦","lat":31.045362,"lng":121.760629,"minutes":112,"tier":5},{"id":"spider_皇宫半岛_浦东","name":"皇宫半岛","lat":31.04561,"lng":121.771566,"minutes":117,"tier":5},{"id":"spider_卫星东路50弄_浦东","name":"卫星东路50弄","lat":31.046245,"lng":121.765087,"minutes":111,"tier":5},{"id":"spider_富成别墅_浦东","name":"富成别墅","lat":30.960948,"lng":121.577296,"minutes":150,"tier":5},{"id":"spider_艺泰一品花园_浦东","name":"艺泰一品花园","lat":31.051048,"lng":121.730298,"minutes":123,"tier":5},{"id":"spider_东方听潮豪园_浦东","name":"东方听潮豪园","lat":31.049579,"lng":121.757954,"minutes":110,"tier":5},{"id":"spider_桃源艺筑_浦东","name":"桃源艺筑","lat":31.057763,"lng":121.755066,"minutes":107,"tier":5},{"id":"spider_香桂园_浦东","name":"香桂园","lat":31.042847,"lng":121.766642,"minutes":115,"tier":5},{"id":"spider_吉园坊_浦东","name":"吉园坊","lat":31.028105,"lng":121.741896,"minutes":115,"tier":5},{"id":"spider_华钜御庭(二期)_浦东","name":"华钜御庭(二期)","lat":31.056351,"lng":121.7705,"minutes":109,"tier":5},{"id":"spider_博佳花园_浦东","name":"博佳花园","lat":31.045825,"lng":121.754954,"minutes":116,"tier":5},{"id":"spider_民乐城惠益绿苑_浦东","name":"民乐城惠益绿苑","lat":31.068007,"lng":121.743364,"minutes":128,"tier":5},{"id":"spider_枫丹白露别墅_浦东","name":"枫丹白露别墅","lat":31.098868,"lng":121.640957,"minutes":109,"tier":5},{"id":"spider_东城靖海苑_浦东","name":"东城靖海苑","lat":31.047599,"lng":121.771301,"minutes":110,"tier":5},{"id":"spider_东卫小区_浦东","name":"东卫小区","lat":31.051074,"lng":121.775692,"minutes":113,"tier":5},{"id":"spider_浦东颐景园_浦东","name":"浦东颐景园","lat":31.060603,"lng":121.764556,"minutes":106,"tier":5},{"id":"spider_人民新村_浦东","name":"人民新村","lat":31.051972,"lng":121.761749,"minutes":101,"tier":5},{"id":"spider_泰燕华庭_浦东","name":"泰燕华庭","lat":31.04087,"lng":121.745994,"minutes":111,"tier":5},{"id":"spider_惠康苑西苑_浦东","name":"惠康苑西苑","lat":31.072296,"lng":121.742136,"minutes":121,"tier":5},{"id":"spider_宣桥枫庭_浦东","name":"宣桥枫庭","lat":31.053539,"lng":121.749469,"minutes":108,"tier":5},{"id":"spider_人生港湾南欧城_浦东","name":"人生港湾南欧城","lat":31.045712,"lng":121.765235,"minutes":114,"tier":5},{"id":"spider_爱盛家园_浦东","name":"爱盛家园","lat":31.056083,"lng":121.767034,"minutes":106,"tier":5},{"id":"spider_听潮四村_浦东","name":"听潮四村","lat":31.050871,"lng":121.747862,"minutes":115,"tier":5},{"id":"spider_申达新村_浦东","name":"申达新村","lat":31.053366,"lng":121.761939,"minutes":97,"tier":5},{"id":"spider_桃源二村_浦东","name":"桃源二村","lat":31.056948,"lng":121.759064,"minutes":101,"tier":5},{"id":"spider_汇通新村_浦东","name":"汇通新村","lat":31.048928,"lng":121.75224,"minutes":115,"tier":5},{"id":"spider_华钜御庭(三期)(公寓)_浦东","name":"华钜御庭(三期)(公寓)","lat":31.057703,"lng":121.773343,"minutes":115,"tier":5},{"id":"spider_中洲珑悦_浦东","name":"中洲珑悦","lat":31.058742,"lng":121.784835,"minutes":127,"tier":5},{"id":"spider_梅花新村(惠南)_浦东","name":"梅花新村(惠南)","lat":31.053837,"lng":121.764717,"minutes":98,"tier":5},{"id":"spider_绿缘新村_浦东","name":"绿缘新村","lat":31.041434,"lng":121.766375,"minutes":117,"tier":5},{"id":"spider_西北新村_浦东","name":"西北新村","lat":31.053188,"lng":121.755875,"minutes":100,"tier":5},{"id":"spider_华钜御庭(三期)(别墅)_浦东","name":"华钜御庭(三期)(别墅)","lat":31.061356,"lng":121.777798,"minutes":119,"tier":5},{"id":"spider_欣欣苑小区_浦东","name":"欣欣苑小区","lat":31.038451,"lng":121.75553,"minutes":117,"tier":5},{"id":"spider_布鲁斯小镇(二期)(别墅)_浦东","name":"布鲁斯小镇(二期)(别墅)","lat":30.884388,"lng":121.408648,"minutes":146,"tier":5},{"id":"spider_龙源星城_浦东","name":"龙源星城","lat":31.051714,"lng":121.787932,"minutes":132,"tier":5},{"id":"spider_东城花苑一村_浦东","name":"东城花苑一村","lat":31.055223,"lng":121.771163,"minutes":110,"tier":5},{"id":"spider_布鲁斯小镇(一期)_浦东","name":"布鲁斯小镇(一期)","lat":31.047157,"lng":121.765787,"minutes":113,"tier":5},{"id":"spider_康敏苑_浦东","name":"康敏苑","lat":31.040867,"lng":121.769924,"minutes":117,"tier":5},{"id":"spider_莎海苑_浦东","name":"莎海苑","lat":31.050855,"lng":121.772232,"minutes":112,"tier":5},{"id":"spider_中科金地华韵_浦东","name":"中科金地华韵","lat":31.058602,"lng":121.769612,"minutes":111,"tier":5},{"id":"spider_东原逸墅_浦东","name":"东原逸墅","lat":31.052223,"lng":121.766959,"minutes":103,"tier":5},{"id":"spider_沿河泾南路23弄_浦东","name":"沿河泾南路23弄","lat":31.112788,"lng":121.66867,"minutes":107,"tier":5},{"id":"spider_金罗湾_浦东","name":"金罗湾","lat":31.048911,"lng":121.762405,"minutes":103,"tier":5},{"id":"spider_人民东路2785弄_浦东","name":"人民东路2785弄","lat":31.055239,"lng":121.772032,"minutes":109,"tier":5},{"id":"spider_江南清漪园_浦东","name":"江南清漪园","lat":31.046176,"lng":121.758094,"minutes":109,"tier":5},{"id":"spider_育新新村_浦东","name":"育新新村","lat":31.047142,"lng":121.761236,"minutes":107,"tier":5},{"id":"spider_民乐城惠园_浦东","name":"民乐城惠园","lat":31.06897,"lng":121.740821,"minutes":120,"tier":5},{"id":"spider_水岸家园_浦东","name":"水岸家园","lat":31.050403,"lng":121.748314,"minutes":115,"tier":5},{"id":"spider_华盛小区_浦东","name":"华盛小区","lat":31.051254,"lng":121.760662,"minutes":100,"tier":5},{"id":"spider_海燕大厦_浦东","name":"海燕大厦","lat":31.047643,"lng":121.761188,"minutes":103,"tier":5},{"id":"spider_供销三村_浦东","name":"供销三村","lat":31.04902,"lng":121.769843,"minutes":111,"tier":5},{"id":"spider_金汇广场_浦东","name":"金汇广场","lat":31.04691,"lng":121.758731,"minutes":108,"tier":5},{"id":"spider_卫星中路18号_浦东","name":"卫星中路18号","lat":31.049026,"lng":121.766006,"minutes":106,"tier":5},{"id":"spider_听潮一村_浦东","name":"听潮一村","lat":31.053568,"lng":121.75158,"minutes":105,"tier":5},{"id":"spider_惠康苑东苑_浦东","name":"惠康苑东苑","lat":31.070762,"lng":121.741711,"minutes":118,"tier":5},{"id":"spider_西门锦绣苑_浦东","name":"西门锦绣苑","lat":31.050434,"lng":121.741412,"minutes":121,"tier":5},{"id":"spider_公园新村_浦东","name":"公园新村","lat":31.045325,"lng":121.753114,"minutes":114,"tier":5},{"id":"spider_西南新村_浦东","name":"西南新村","lat":31.048845,"lng":121.756253,"minutes":108,"tier":5},{"id":"spider_民乐城馨园_浦东","name":"民乐城馨园","lat":31.056959,"lng":121.758114,"minutes":105,"tier":5},{"id":"spider_长城珑湾_浦东","name":"长城珑湾","lat":31.056385,"lng":121.784544,"minutes":117,"tier":5},{"id":"spider_民乐城康苑_浦东","name":"民乐城康苑","lat":31.058546,"lng":121.755288,"minutes":113,"tier":5},{"id":"spider_盛和小区_浦东","name":"盛和小区","lat":31.047524,"lng":121.758764,"minutes":105,"tier":5},{"id":"spider_申云小区_浦东","name":"申云小区","lat":31.042298,"lng":121.754077,"minutes":114,"tier":5},{"id":"spider_卫星西路16弄_浦东","name":"卫星西路16弄","lat":31.056712,"lng":121.767946,"minutes":104,"tier":5},{"id":"spider_乐源城_浦东","name":"乐源城","lat":31.0503,"lng":121.773209,"minutes":114,"tier":5},{"id":"spider_民乐城丽园_浦东","name":"民乐城丽园","lat":31.064409,"lng":121.738685,"minutes":118,"tier":5},{"id":"spider_惠房苑_浦东","name":"惠房苑","lat":31.048965,"lng":121.756981,"minutes":106,"tier":5},{"id":"spider_城南东路154弄_浦东","name":"城南东路154弄","lat":31.391978,"lng":121.368352,"minutes":107,"tier":5},{"id":"spider_惠丰园小区_浦东","name":"惠丰园小区","lat":31.053313,"lng":121.766163,"minutes":100,"tier":5},{"id":"spider_广衍路7弄_浦东","name":"广衍路7弄","lat":31.056712,"lng":121.767946,"minutes":104,"tier":5},{"id":"spider_华汇公寓_浦东","name":"华汇公寓","lat":31.414339,"lng":121.195885,"minutes":122,"tier":5},{"id":"spider_华观商住楼_浦东","name":"华观商住楼","lat":31.056712,"lng":121.767946,"minutes":104,"tier":5},{"id":"spider_工业新村_浦东","name":"工业新村","lat":31.050314,"lng":121.76476,"minutes":106,"tier":5},{"id":"spider_城基路148弄_浦东","name":"城基路148弄","lat":31.052028,"lng":121.758575,"minutes":100,"tier":5},{"id":"spider_海燕二村_浦东","name":"海燕二村","lat":31.039864,"lng":121.766279,"minutes":117,"tier":5},{"id":"spider_联谊新寓_浦东","name":"联谊新寓","lat":31.051957,"lng":121.765049,"minutes":102,"tier":5},{"id":"spider_成功家园(公寓)_浦东","name":"成功家园(公寓)","lat":31.05189,"lng":121.728018,"minutes":131,"tier":5},{"id":"spider_水利新村_浦东","name":"水利新村","lat":31.050249,"lng":121.762342,"minutes":103,"tier":5},{"id":"spider_三八路110弄_浦东","name":"三八路110弄","lat":31.051997,"lng":121.765429,"minutes":103,"tier":5},{"id":"spider_惠北新村_浦东","name":"惠北新村","lat":31.05221,"lng":121.7608,"minutes":97,"tier":5},{"id":"spider_听潮二村_浦东","name":"听潮二村","lat":31.052082,"lng":121.7453,"minutes":112,"tier":5},{"id":"spider_东方城市豪庭_浦东","name":"东方城市豪庭","lat":31.051249,"lng":121.770725,"minutes":108,"tier":5},{"id":"spider_民乐城锦园_浦东","name":"民乐城锦园","lat":31.058805,"lng":121.752163,"minutes":114,"tier":5},{"id":"spider_北门新村_浦东","name":"北门新村","lat":31.052726,"lng":121.762122,"minutes":100,"tier":5},{"id":"spider_繁新苑_浦东","name":"繁新苑","lat":31.047746,"lng":121.763566,"minutes":105,"tier":5},{"id":"spider_十字街大楼_浦东","name":"十字街大楼","lat":31.048706,"lng":121.762734,"minutes":104,"tier":5},{"id":"spider_乐源城C区_浦东","name":"乐源城C区","lat":31.051394,"lng":121.780863,"minutes":117,"tier":5},{"id":"spider_星创城_浦东","name":"星创城","lat":31.053284,"lng":121.77416,"minutes":109,"tier":5},{"id":"spider_禹洲商业广场_浦东","name":"禹洲商业广场","lat":31.041704,"lng":121.741328,"minutes":121,"tier":5},{"id":"spider_绿地峰汇_浦东","name":"绿地峰汇","lat":31.042386,"lng":121.754129,"minutes":115,"tier":5},{"id":"spider_东门路500弄_浦东","name":"东门路500弄","lat":31.048166,"lng":121.772689,"minutes":108,"tier":5},{"id":"spider_连城苑_浦东","name":"连城苑","lat":31.26327,"lng":121.589555,"minutes":84,"tier":5},{"id":"spider_南极苑_浦东","name":"南极苑","lat":31.270178,"lng":121.580589,"minutes":96,"tier":5},{"id":"spider_融都金桥园_浦东","name":"融都金桥园","lat":31.26018,"lng":121.593971,"minutes":79,"tier":5},{"id":"spider_金桥湾清水苑_浦东","name":"金桥湾清水苑","lat":31.264375,"lng":121.598108,"minutes":88,"tier":5},{"id":"spider_沪东花苑_浦东","name":"沪东花苑","lat":31.275628,"lng":121.59299,"minutes":83,"tier":5},{"id":"spider_伟业金锦苑二村_浦东","name":"伟业金锦苑二村","lat":31.286054,"lng":121.588378,"minutes":84,"tier":5},{"id":"spider_长岛公寓_浦东","name":"长岛公寓","lat":31.268235,"lng":121.60557,"minutes":89,"tier":5},{"id":"spider_金藤苑_浦东","name":"金藤苑","lat":31.272123,"lng":121.594643,"minutes":92,"tier":5},{"id":"spider_丽都成品_浦东","name":"丽都成品","lat":31.278633,"lng":121.594197,"minutes":84,"tier":5},{"id":"spider_东荷小区_浦东","name":"东荷小区","lat":31.267947,"lng":121.620228,"minutes":87,"tier":5},{"id":"spider_证大家园(一期)_浦东","name":"证大家园(一期)","lat":31.285778,"lng":121.604551,"minutes":86,"tier":5},{"id":"spider_东陆新村二街坊_浦东","name":"东陆新村二街坊","lat":31.27709,"lng":121.60339,"minutes":83,"tier":5},{"id":"spider_金葵佳苑_浦东","name":"金葵佳苑","lat":31.243597,"lng":121.638888,"minutes":91,"tier":5},{"id":"spider_东一小区_浦东","name":"东一小区","lat":31.273988,"lng":121.597054,"minutes":91,"tier":5},{"id":"spider_证大家园(二期)_浦东","name":"证大家园(二期)","lat":31.286022,"lng":121.603816,"minutes":86,"tier":5},{"id":"spider_中大丽都_浦东","name":"中大丽都","lat":31.276133,"lng":121.593304,"minutes":85,"tier":5},{"id":"spider_爱法新城_浦东","name":"爱法新城","lat":31.269689,"lng":121.617761,"minutes":95,"tier":5},{"id":"spider_证大家园(五期)_浦东","name":"证大家园(五期)","lat":31.285377,"lng":121.597086,"minutes":91,"tier":5},{"id":"spider_柳博小区(博二小区)_浦东","name":"柳博小区(博二小区)","lat":31.266762,"lng":121.588456,"minutes":84,"tier":5},{"id":"spider_荷三小区_浦东","name":"荷三小区","lat":31.2647,"lng":121.621367,"minutes":79,"tier":5},{"id":"spider_朱家门小区_浦东","name":"朱家门小区","lat":31.280401,"lng":121.58544,"minutes":79,"tier":5},{"id":"spider_东五小区(浦东)_浦东","name":"东五小区(浦东)","lat":31.268099,"lng":121.619801,"minutes":87,"tier":5},{"id":"spider_中环滨江大厦_浦东","name":"中环滨江大厦","lat":31.261745,"lng":121.563665,"minutes":91,"tier":5},{"id":"spider_双桥小区_浦东","name":"双桥小区","lat":31.272707,"lng":121.621523,"minutes":95,"tier":5},{"id":"spider_新紫茂国际_浦东","name":"新紫茂国际","lat":31.282459,"lng":121.612355,"minutes":86,"tier":5},{"id":"spider_新金桥假日公寓_浦东","name":"新金桥假日公寓","lat":31.274963,"lng":121.619084,"minutes":90,"tier":5},{"id":"spider_联鑫坊_浦东","name":"联鑫坊","lat":31.288241,"lng":121.587158,"minutes":91,"tier":5},{"id":"spider_晶波坊_浦东","name":"晶波坊","lat":31.288175,"lng":121.582592,"minutes":95,"tier":5},{"id":"spider_蓝城小区_浦东","name":"蓝城小区","lat":31.267096,"lng":121.585968,"minutes":84,"tier":5},{"id":"spider_永业小区_浦东","name":"永业小区","lat":31.269191,"lng":121.617594,"minutes":95,"tier":5},{"id":"spider_碧云新天地(二期)_浦东","name":"碧云新天地(二期)","lat":31.263813,"lng":121.590759,"minutes":86,"tier":5},{"id":"spider_东二小区_浦东","name":"东二小区","lat":31.272272,"lng":121.601434,"minutes":94,"tier":5},{"id":"spider_东陆新村三街坊_浦东","name":"东陆新村三街坊","lat":31.268718,"lng":121.621745,"minutes":86,"tier":5},{"id":"spider_金桥新村一街坊_浦东","name":"金桥新村一街坊","lat":31.265763,"lng":121.623538,"minutes":80,"tier":5},{"id":"spider_荷一小区_浦东","name":"荷一小区","lat":31.267809,"lng":121.620776,"minutes":89,"tier":5},{"id":"spider_浦沁苑_浦东","name":"浦沁苑","lat":31.281622,"lng":121.603254,"minutes":79,"tier":5},{"id":"spider_汇佳苑_浦东","name":"汇佳苑","lat":31.28356,"lng":121.58125,"minutes":75,"tier":5},{"id":"spider_浦三小区_浦东","name":"浦三小区","lat":31.265326,"lng":121.61941,"minutes":81,"tier":5},{"id":"spider_莱金佳园_浦东","name":"莱金佳园","lat":31.297611,"lng":121.602382,"minutes":245,"tier":5},{"id":"spider_同方锦城（C区）_浦东","name":"同方锦城（C区）","lat":31.264966,"lng":121.617917,"minutes":79,"tier":5},{"id":"spider_金葵新城(东区)_浦东","name":"金葵新城(东区)","lat":31.242988,"lng":121.63584,"minutes":89,"tier":5},{"id":"spider_嘉屯苑_浦东","name":"嘉屯苑","lat":31.285726,"lng":121.581659,"minutes":80,"tier":5},{"id":"spider_莱阳北小区_浦东","name":"莱阳北小区","lat":31.278151,"lng":121.583108,"minutes":84,"tier":5},{"id":"spider_金泰小区_浦东","name":"金泰小区","lat":31.259302,"lng":121.592214,"minutes":84,"tier":5},{"id":"spider_金和佳园_浦东","name":"金和佳园","lat":31.264042,"lng":121.605291,"minutes":262,"tier":5},{"id":"spider_金桥新城(一期)_浦东","name":"金桥新城(一期)","lat":31.267284,"lng":121.61158,"minutes":86,"tier":5},{"id":"spider_阳光欧洲城别墅(一期)_浦东","name":"阳光欧洲城别墅(一期)","lat":31.274566,"lng":121.614695,"minutes":90,"tier":5},{"id":"spider_沪南船舶小区_浦东","name":"沪南船舶小区","lat":31.271201,"lng":121.582034,"minutes":93,"tier":5},{"id":"spider_东陆新村七街坊_浦东","name":"东陆新村七街坊","lat":31.268399,"lng":121.62326,"minutes":82,"tier":5},{"id":"spider_永建路86弄_浦东","name":"永建路86弄","lat":31.265063,"lng":121.617358,"minutes":78,"tier":5},{"id":"spider_金新花苑_浦东","name":"金新花苑","lat":31.261272,"lng":121.612177,"minutes":67,"tier":5},{"id":"spider_金鹏苑_浦东","name":"金鹏苑","lat":31.260033,"lng":121.594241,"minutes":79,"tier":5},{"id":"spider_绿景苑_浦东","name":"绿景苑","lat":31.259283,"lng":121.600327,"minutes":78,"tier":5},{"id":"spider_金桥横街小区_浦东","name":"金桥横街小区","lat":31.256694,"lng":121.595132,"minutes":78,"tier":5},{"id":"spider_江南山水_浦东","name":"江南山水","lat":31.275843,"lng":121.588984,"minutes":82,"tier":5},{"id":"spider_船舶新村_浦东","name":"船舶新村","lat":31.270514,"lng":121.580496,"minutes":96,"tier":5},{"id":"spider_锦河苑_浦东","name":"锦河苑","lat":31.273534,"lng":121.588924,"minutes":84,"tier":5},{"id":"spider_金桥路835弄_浦东","name":"金桥路835弄","lat":31.261854,"lng":121.580899,"minutes":89,"tier":5},{"id":"spider_爱法新都_浦东","name":"爱法新都","lat":31.259734,"lng":121.604665,"minutes":79,"tier":5},{"id":"spider_莱阳新家园_浦东","name":"莱阳新家园","lat":31.283387,"lng":121.585452,"minutes":85,"tier":5},{"id":"spider_外外滩_浦东","name":"外外滩","lat":31.271414,"lng":121.577522,"minutes":90,"tier":5},{"id":"spider_佳虹小区_浦东","name":"佳虹小区","lat":31.266027,"lng":121.628476,"minutes":83,"tier":5},{"id":"spider_寿二小区_浦东","name":"寿二小区","lat":31.277854,"lng":121.588262,"minutes":79,"tier":5},{"id":"spider_中大新苑_浦东","name":"中大新苑","lat":31.268656,"lng":121.602344,"minutes":89,"tier":5},{"id":"spider_邮电小区(浦东)_浦东","name":"邮电小区(浦东)","lat":31.269006,"lng":121.592622,"minutes":93,"tier":5},{"id":"spider_金桥新家园_浦东","name":"金桥新家园","lat":31.259986,"lng":121.591751,"minutes":83,"tier":5},{"id":"spider_阳光国际公寓_浦东","name":"阳光国际公寓","lat":31.272354,"lng":121.615745,"minutes":90,"tier":5},{"id":"spider_龙臣公寓_浦东","name":"龙臣公寓","lat":31.267151,"lng":121.619358,"minutes":84,"tier":5},{"id":"spider_金东名苑_浦东","name":"金东名苑","lat":31.259983,"lng":121.591389,"minutes":85,"tier":5},{"id":"spider_金舟苑_浦东","name":"金舟苑","lat":31.263283,"lng":121.616052,"minutes":78,"tier":5},{"id":"spider_同方锦城（B区）_浦东","name":"同方锦城（B区）","lat":31.263911,"lng":121.586989,"minutes":78,"tier":5},{"id":"spider_银桥花苑_浦东","name":"银桥花苑","lat":31.262743,"lng":121.590293,"minutes":85,"tier":5},{"id":"spider_金燕家苑_浦东","name":"金燕家苑","lat":31.255934,"lng":121.595798,"minutes":71,"tier":5},{"id":"spider_新沪东公寓_浦东","name":"新沪东公寓","lat":31.266621,"lng":121.585332,"minutes":84,"tier":5},{"id":"spider_金色米兰苑_浦东","name":"金色米兰苑","lat":31.275774,"lng":121.622687,"minutes":91,"tier":5},{"id":"spider_禹洲·金桥国际3期_浦东","name":"禹洲·金桥国际3期","lat":31.261371,"lng":121.61924,"minutes":80,"tier":5},{"id":"spider_碧海现代苑_浦东","name":"碧海现代苑","lat":31.256133,"lng":121.605256,"minutes":79,"tier":5},{"id":"spider_禹洲金桥国际_浦东","name":"禹洲金桥国际","lat":31.25779,"lng":121.617122,"minutes":77,"tier":5},{"id":"spider_中大苑_浦东","name":"中大苑","lat":31.271052,"lng":121.594942,"minutes":92,"tier":5},{"id":"spider_伟业金锦苑一村_浦东","name":"伟业金锦苑一村","lat":31.286272,"lng":121.585466,"minutes":85,"tier":5},{"id":"spider_伟莱家园_浦东","name":"伟莱家园","lat":31.282961,"lng":121.579142,"minutes":74,"tier":5},{"id":"spider_融创精彩天地_浦东","name":"融创精彩天地","lat":31.269562,"lng":121.62184,"minutes":87,"tier":5},{"id":"spider_金桥中环大厦_浦东","name":"金桥中环大厦","lat":31.257866,"lng":121.618536,"minutes":81,"tier":5},{"id":"spider_金杨新村五街坊_浦东","name":"金杨新村五街坊","lat":31.250155,"lng":121.580446,"minutes":83,"tier":5},{"id":"spider_金杨公寓_浦东","name":"金杨公寓","lat":31.246465,"lng":121.582527,"minutes":76,"tier":5},{"id":"spider_金杨新村三街坊_浦东","name":"金杨新村三街坊","lat":31.253811,"lng":121.581629,"minutes":87,"tier":5},{"id":"spider_金杨新村十街坊_浦东","name":"金杨新村十街坊","lat":31.253617,"lng":121.588101,"minutes":85,"tier":5},{"id":"spider_黄山二村_浦东","name":"黄山二村","lat":31.25916,"lng":121.570848,"minutes":88,"tier":5},{"id":"spider_栖山路1689弄_浦东","name":"栖山路1689弄","lat":31.263633,"lng":121.57206,"minutes":94,"tier":5},{"id":"spider_金杨新村四街坊_浦东","name":"金杨新村四街坊","lat":31.247677,"lng":121.577045,"minutes":77,"tier":5},{"id":"spider_栖山家园_浦东","name":"栖山家园","lat":31.023998,"lng":121.467275,"minutes":94,"tier":5},{"id":"spider_黄山始信苑_浦东","name":"黄山始信苑","lat":31.259958,"lng":121.574199,"minutes":95,"tier":5},{"id":"spider_昕泰苑_浦东","name":"昕泰苑","lat":31.257172,"lng":121.573032,"minutes":86,"tier":5},{"id":"spider_艾山新村_浦东","name":"艾山新村","lat":31.258778,"lng":121.55758,"minutes":88,"tier":5},{"id":"spider_仙都绿苑_浦东","name":"仙都绿苑","lat":31.242526,"lng":121.504067,"minutes":67,"tier":5},{"id":"spider_罗山六村_浦东","name":"罗山六村","lat":31.250844,"lng":121.56411,"minutes":83,"tier":5},{"id":"spider_云山星座苑_浦东","name":"云山星座苑","lat":31.128921,"lng":121.518049,"minutes":156,"tier":5},{"id":"spider_通联苑_浦东","name":"通联苑","lat":31.254836,"lng":121.569823,"minutes":80,"tier":5},{"id":"spider_罗山八村_浦东","name":"罗山八村","lat":31.252668,"lng":121.568269,"minutes":77,"tier":5},{"id":"spider_金台三居_浦东","name":"金台三居","lat":31.253263,"lng":121.593885,"minutes":72,"tier":5},{"id":"spider_金杨二街坊_浦东","name":"金杨二街坊","lat":31.252642,"lng":121.578855,"minutes":83,"tier":5},{"id":"spider_广洋苑_浦东","name":"广洋苑","lat":31.253559,"lng":121.573516,"minutes":79,"tier":5},{"id":"spider_点睛苑_浦东","name":"点睛苑","lat":31.183701,"lng":121.361756,"minutes":71,"tier":5},{"id":"spider_弘扬雅苑_浦东","name":"弘扬雅苑","lat":31.025378,"lng":121.47038,"minutes":95,"tier":5},{"id":"spider_黄山一村_浦东","name":"黄山一村","lat":31.256504,"lng":121.572971,"minutes":83,"tier":5},{"id":"spider_信罗大厦_浦东","name":"信罗大厦","lat":31.251974,"lng":121.567846,"minutes":79,"tier":5},{"id":"spider_云山苑_浦东","name":"云山苑","lat":31.234453,"lng":121.560449,"minutes":71,"tier":5},{"id":"spider_龙居苑_浦东","name":"龙居苑","lat":31.259198,"lng":121.561001,"minutes":85,"tier":5},{"id":"spider_银山小区_浦东","name":"银山小区","lat":31.246901,"lng":121.583822,"minutes":77,"tier":5},{"id":"spider_新世纪名苑_浦东","name":"新世纪名苑","lat":31.254221,"lng":121.587146,"minutes":83,"tier":5},{"id":"spider_博山公寓_浦东","name":"博山公寓","lat":31.25358,"lng":121.583964,"minutes":83,"tier":5},{"id":"spider_东方广场_浦东","name":"东方广场","lat":31.249576,"lng":121.557863,"minutes":88,"tier":5},{"id":"spider_罗山二村_浦东","name":"罗山二村","lat":31.256264,"lng":121.559958,"minutes":94,"tier":5},{"id":"spider_黄山三村_浦东","name":"黄山三村","lat":31.260102,"lng":121.568745,"minutes":89,"tier":5},{"id":"spider_石油大院_浦东","name":"石油大院","lat":31.235929,"lng":121.480539,"minutes":59,"tier":5},{"id":"spider_枣庄路118弄_浦东","name":"枣庄路118弄","lat":31.260692,"lng":121.571845,"minutes":93,"tier":5},{"id":"spider_东兴华苑_浦东","name":"东兴华苑","lat":31.256402,"lng":121.59292,"minutes":77,"tier":5},{"id":"spider_和景商务楼_浦东","name":"和景商务楼","lat":31.250557,"lng":121.578617,"minutes":84,"tier":5},{"id":"spider_天枫公寓_浦东","name":"天枫公寓","lat":31.279132,"lng":121.514694,"minutes":75,"tier":5},{"id":"spider_名典苑_浦东","name":"名典苑","lat":31.254694,"lng":121.576706,"minutes":85,"tier":5},{"id":"spider_中邦城市_浦东","name":"中邦城市","lat":31.141819,"lng":121.573978,"minutes":87,"tier":5},{"id":"spider_康桥月苑_浦东","name":"康桥月苑","lat":31.131878,"lng":121.599153,"minutes":242,"tier":5},{"id":"spider_达城家园_浦东","name":"达城家园","lat":31.125664,"lng":121.603811,"minutes":248,"tier":5},{"id":"spider_双秀西园_浦东","name":"双秀西园","lat":31.124417,"lng":121.566081,"minutes":86,"tier":5},{"id":"spider_海尚康庭_浦东","name":"海尚康庭","lat":31.130395,"lng":121.602695,"minutes":246,"tier":5},{"id":"spider_文怡苑_浦东","name":"文怡苑","lat":31.144598,"lng":121.607954,"minutes":84,"tier":5},{"id":"spider_康桥半岛(秀沿路1177弄)_浦东","name":"康桥半岛(秀沿路1177弄)","lat":31.134242,"lng":121.612069,"minutes":81,"tier":5},{"id":"spider_绿地上河院_浦东","name":"绿地上河院","lat":31.141954,"lng":121.562594,"minutes":88,"tier":5},{"id":"spider_周康二村_浦东","name":"周康二村","lat":31.143142,"lng":121.574092,"minutes":83,"tier":5},{"id":"spider_康庭苑_浦东","name":"康庭苑","lat":31.144691,"lng":121.616868,"minutes":88,"tier":5},{"id":"spider_绿宝园_浦东","name":"绿宝园","lat":31.133391,"lng":121.567699,"minutes":72,"tier":5},{"id":"spider_旭辉亚瑟郡_浦东","name":"旭辉亚瑟郡","lat":31.145665,"lng":121.605185,"minutes":246,"tier":5},{"id":"spider_中科大学村_浦东","name":"中科大学村","lat":31.147855,"lng":121.539685,"minutes":59,"tier":5},{"id":"spider_绿地柏澜晶舍_浦东","name":"绿地柏澜晶舍","lat":31.134242,"lng":121.612069,"minutes":81,"tier":5},{"id":"spider_中邦城市园_浦东","name":"中邦城市园","lat":31.13743,"lng":121.575135,"minutes":85,"tier":5},{"id":"spider_浦三路4677弄_浦东","name":"浦三路4677弄","lat":31.127613,"lng":121.556921,"minutes":242,"tier":5},{"id":"spider_阳光城丽景湾PLUS_浦东","name":"阳光城丽景湾PLUS","lat":31.121188,"lng":121.551749,"minutes":244,"tier":5},{"id":"spider_中邦大都会_浦东","name":"中邦大都会","lat":31.139893,"lng":121.577462,"minutes":88,"tier":5},{"id":"spider_康桥半岛国际公寓_浦东","name":"康桥半岛国际公寓","lat":31.136457,"lng":121.583644,"minutes":89,"tier":5},{"id":"spider_万科提香别墅_浦东","name":"万科提香别墅","lat":31.140851,"lng":121.58845,"minutes":234,"tier":5},{"id":"spider_广洋新景苑(公寓)_浦东","name":"广洋新景苑(公寓)","lat":31.217483,"lng":121.563101,"minutes":75,"tier":5},{"id":"spider_第九城市(一期)_浦东","name":"第九城市(一期)","lat":31.229993,"lng":121.568451,"minutes":76,"tier":5},{"id":"spider_联洋新苑_浦东","name":"联洋新苑","lat":31.226173,"lng":121.555916,"minutes":70,"tier":5},{"id":"spider_联洋年华_浦东","name":"联洋年华","lat":31.229638,"lng":121.557384,"minutes":63,"tier":5},{"id":"spider_金桂家园_浦东","name":"金桂家园","lat":31.228706,"lng":121.573637,"minutes":87,"tier":5},{"id":"spider_御景园_浦东","name":"御景园","lat":31.224852,"lng":121.556144,"minutes":72,"tier":5},{"id":"spider_联洋花园(二期)_浦东","name":"联洋花园(二期)","lat":31.228611,"lng":121.555637,"minutes":66,"tier":5},{"id":"spider_康桥半岛翠庭别墅_浦东","name":"康桥半岛翠庭别墅","lat":31.134242,"lng":121.612069,"minutes":81,"tier":5},{"id":"spider_海印又一城_浦东","name":"海印又一城","lat":31.134242,"lng":121.612069,"minutes":81,"tier":5},{"id":"spider_御翠园_浦东","name":"御翠园","lat":31.051629,"lng":121.484778,"minutes":174,"tier":5},{"id":"spider_金色维也纳(公寓)_浦东","name":"金色维也纳(公寓)","lat":31.226084,"lng":121.565969,"minutes":75,"tier":5},{"id":"spider_宏兆锦庭_浦东","name":"宏兆锦庭","lat":30.901851,"lng":121.92609,"minutes":124,"tier":5},{"id":"spider_保利蔚蓝林语_浦东","name":"保利蔚蓝林语","lat":30.900139,"lng":121.904797,"minutes":139,"tier":5},{"id":"spider_绿地东岸涟城_浦东","name":"绿地东岸涟城","lat":30.887492,"lng":121.920166,"minutes":140,"tier":5},{"id":"spider_宜浩佳园北区_浦东","name":"宜浩佳园北区","lat":30.898529,"lng":121.913363,"minutes":139,"tier":5},{"id":"spider_宜浩佳园南区_浦东","name":"宜浩佳园南区","lat":30.904457,"lng":121.912414,"minutes":142,"tier":5},{"id":"spider_滴水湖馨苑一期_浦东","name":"滴水湖馨苑一期","lat":30.8964,"lng":121.903043,"minutes":148,"tier":5},{"id":"spider_朗诗里程_浦东","name":"朗诗里程","lat":30.878657,"lng":121.866885,"minutes":158,"tier":5},{"id":"spider_海芦汇鸣苑_浦东","name":"海芦汇鸣苑","lat":30.879426,"lng":121.870788,"minutes":161,"tier":5},{"id":"spider_碧云壹零_浦东","name":"碧云壹零","lat":30.896242,"lng":121.892616,"minutes":139,"tier":5},{"id":"spider_临港家园_浦东","name":"临港家园","lat":30.886673,"lng":121.919715,"minutes":140,"tier":5},{"id":"spider_联洋花园(一期)_浦东","name":"联洋花园(一期)","lat":31.233212,"lng":121.558234,"minutes":65,"tier":5},{"id":"spider_宝龙世家_浦东","name":"宝龙世家","lat":30.999796,"lng":121.710415,"minutes":128,"tier":5},{"id":"spider_万科金域澜湾鹭语墅_浦东","name":"万科金域澜湾鹭语墅","lat":30.923703,"lng":121.92864,"minutes":140,"tier":5},{"id":"spider_东宸源著_浦东","name":"东宸源著","lat":31.043842,"lng":121.723505,"minutes":118,"tier":5},{"id":"spider_海上风华_浦东","name":"海上风华","lat":30.924685,"lng":121.92425,"minutes":133,"tier":5},{"id":"spider_滴水湖馨苑四期_浦东","name":"滴水湖馨苑四期","lat":30.894576,"lng":121.888394,"minutes":134,"tier":5},{"id":"spider_海汇清波苑_浦东","name":"海汇清波苑","lat":30.876761,"lng":121.872209,"minutes":159,"tier":5},{"id":"spider_绿地蓝海庭_浦东","name":"绿地蓝海庭","lat":30.887624,"lng":121.918378,"minutes":144,"tier":5},{"id":"spider_紫菁庭_浦东","name":"紫菁庭","lat":30.885724,"lng":121.876507,"minutes":173,"tier":5},{"id":"spider_陆家嘴滴水涟岸一期_浦东","name":"陆家嘴滴水涟岸一期","lat":30.915992,"lng":121.94298,"minutes":140,"tier":5},{"id":"spider_海尚明徕苑_浦东","name":"海尚明徕苑","lat":30.878669,"lng":121.865833,"minutes":165,"tier":5},{"id":"spider_中建锦绣熙岸_浦东","name":"中建锦绣熙岸","lat":30.885871,"lng":121.877172,"minutes":175,"tier":5},{"id":"spider_海汇听涛苑_浦东","name":"海汇听涛苑","lat":30.898929,"lng":121.860855,"minutes":141,"tier":5},{"id":"spider_滴水湖馨苑创馨派_浦东","name":"滴水湖馨苑创馨派","lat":30.88947,"lng":121.659609,"minutes":155,"tier":5},{"id":"spider_海汇丰泽苑_浦东","name":"海汇丰泽苑","lat":30.871006,"lng":121.863492,"minutes":160,"tier":5},{"id":"spider_临港十七区_浦东","name":"临港十七区","lat":30.882961,"lng":121.874569,"minutes":166,"tier":5},{"id":"spider_临港新世界休闲广场_浦东","name":"临港新世界休闲广场","lat":30.888052,"lng":121.918886,"minutes":143,"tier":5},{"id":"spider_湖滨天地_浦东","name":"湖滨天地","lat":30.900965,"lng":121.930581,"minutes":123,"tier":5},{"id":"spider_广昊世纪大厦_浦东","name":"广昊世纪大厦","lat":30.902609,"lng":121.929329,"minutes":122,"tier":5},{"id":"spider_宝龙世家9号公馆_浦东","name":"宝龙世家9号公馆","lat":30.874328,"lng":121.857744,"minutes":146,"tier":5},{"id":"spider_东明新村_浦东","name":"东明新村","lat":31.220747,"lng":121.521678,"minutes":69,"tier":5},{"id":"spider_仁恒滨江园_浦东","name":"仁恒滨江园","lat":31.232948,"lng":121.51187,"minutes":59,"tier":5},{"id":"spider_汤臣中心_浦东","name":"汤臣中心","lat":31.228733,"lng":121.516142,"minutes":52,"tier":4},{"id":"spider_菊园_浦东","name":"菊园","lat":31.231623,"lng":121.516969,"minutes":53,"tier":4},{"id":"spider_京城大厦_浦东","name":"京城大厦","lat":31.219002,"lng":121.520852,"minutes":71,"tier":5},{"id":"spider_兰园小区_浦东","name":"兰园小区","lat":31.228582,"lng":121.517347,"minutes":54,"tier":4},{"id":"spider_久阳滨江公寓_浦东","name":"久阳滨江公寓","lat":31.22625,"lng":121.520819,"minutes":61,"tier":5},{"id":"spider_陈家宅小区(潍坊西路)_浦东","name":"陈家宅小区(潍坊西路)","lat":31.225401,"lng":121.519967,"minutes":60,"tier":5},{"id":"spider_天科苑_浦东","name":"天科苑","lat":31.223002,"lng":121.520658,"minutes":63,"tier":5},{"id":"spider_江临天下_浦东","name":"江临天下","lat":31.230184,"lng":121.516112,"minutes":50,"tier":4},{"id":"spider_东园三村小区_浦东","name":"东园三村小区","lat":31.234137,"lng":121.518687,"minutes":58,"tier":5},{"id":"spider_盛大金磐_浦东","name":"盛大金磐","lat":31.234216,"lng":121.508429,"minutes":67,"tier":5},{"id":"spider_百富达公寓_浦东","name":"百富达公寓","lat":31.220686,"lng":121.52017,"minutes":70,"tier":5},{"id":"spider_滨康大楼_浦东","name":"滨康大楼","lat":31.222086,"lng":121.520404,"minutes":67,"tier":5},{"id":"spider_东园一村_浦东","name":"东园一村","lat":31.235586,"lng":121.517171,"minutes":60,"tier":5},{"id":"spider_东港公寓_浦东","name":"东港公寓","lat":31.220626,"lng":121.52247,"minutes":68,"tier":5},{"id":"spider_东园二村_浦东","name":"东园二村","lat":31.235019,"lng":121.51538,"minutes":63,"tier":5},{"id":"spider_集成大厦_浦东","name":"集成大厦","lat":31.220994,"lng":121.518636,"minutes":65,"tier":5},{"id":"spider_浦东南路1780弄_浦东","name":"浦东南路1780弄","lat":31.222407,"lng":121.52508,"minutes":66,"tier":5},{"id":"spider_地产尚海郦景_浦东","name":"地产尚海郦景","lat":31.055999,"lng":121.445555,"minutes":72,"tier":5},{"id":"spider_荣成大厦_浦东","name":"荣成大厦","lat":31.056948,"lng":121.433422,"minutes":65,"tier":5},{"id":"spider_瑞苑公寓_浦东","name":"瑞苑公寓","lat":31.243449,"lng":121.514865,"minutes":75,"tier":5},{"id":"spider_梅园三村_浦东","name":"梅园三村","lat":31.055985,"lng":121.436218,"minutes":67,"tier":5},{"id":"spider_荣城花苑_浦东","name":"荣城花苑","lat":30.943479,"lng":121.378771,"minutes":127,"tier":5},{"id":"spider_邑滨江_浦东","name":"邑滨江","lat":30.867456,"lng":121.343839,"minutes":115,"tier":5},{"id":"spider_万科翡翠滨江(一期)_浦东","name":"万科翡翠滨江(一期)","lat":30.995933,"lng":121.413547,"minutes":101,"tier":5},{"id":"spider_东珂花苑_浦东","name":"东珂花苑","lat":30.991014,"lng":121.414378,"minutes":115,"tier":5},{"id":"spider_陆家嘴国际华城_浦东","name":"陆家嘴国际华城","lat":31.052925,"lng":121.44453,"minutes":76,"tier":5},{"id":"spider_中星张杨苑_浦东","name":"中星张杨苑","lat":30.941916,"lng":121.389998,"minutes":122,"tier":5},{"id":"spider_梅园六街坊_浦东","name":"梅园六街坊","lat":31.053618,"lng":121.44016,"minutes":68,"tier":5},{"id":"spider_浦江茗园_浦东","name":"浦江茗园","lat":30.993562,"lng":121.401271,"minutes":117,"tier":5},{"id":"spider_光辉小区_浦东","name":"光辉小区","lat":31.240195,"lng":121.529505,"minutes":73,"tier":5},{"id":"spider_海怡别墅(公寓)_浦东","name":"海怡别墅(公寓)","lat":31.239966,"lng":121.537577,"minutes":73,"tier":5},{"id":"spider_东晶国际公寓_浦东","name":"东晶国际公寓","lat":31.057314,"lng":121.44224,"minutes":76,"tier":5},{"id":"spider_陆家嘴壹号院_浦东","name":"陆家嘴壹号院","lat":31.245815,"lng":121.52897,"minutes":77,"tier":5},{"id":"spider_民生家园_浦东","name":"民生家园","lat":30.942072,"lng":121.389427,"minutes":123,"tier":5},{"id":"spider_阳升公寓_浦东","name":"阳升公寓","lat":31.24409,"lng":121.523642,"minutes":75,"tier":5},{"id":"spider_惠扬大厦_浦东","name":"惠扬大厦","lat":31.030746,"lng":121.429012,"minutes":87,"tier":5},{"id":"spider_同科公寓_浦东","name":"同科公寓","lat":31.246181,"lng":121.529507,"minutes":78,"tier":5},{"id":"spider_崂山四村_浦东","name":"崂山四村","lat":31.053245,"lng":121.433705,"minutes":159,"tier":5},{"id":"spider_乳山四村_浦东","name":"乳山四村","lat":31.236336,"lng":121.524371,"minutes":68,"tier":5},{"id":"spider_海联大厦_浦东","name":"海联大厦","lat":31.24548,"lng":121.539055,"minutes":67,"tier":5},{"id":"spider_涵乐园_浦东","name":"涵乐园","lat":31.234668,"lng":121.534751,"minutes":67,"tier":5},{"id":"spider_海怡花园(浦东)_浦东","name":"海怡花园(浦东)","lat":31.234407,"lng":121.532888,"minutes":67,"tier":5},{"id":"spider_珠江玫瑰花园(公寓)_浦东","name":"珠江玫瑰花园(公寓)","lat":31.058167,"lng":121.44226,"minutes":75,"tier":5},{"id":"spider_市政大楼_浦东","name":"市政大楼","lat":30.989281,"lng":121.406581,"minutes":124,"tier":5},{"id":"spider_海院新村_浦东","name":"海院新村","lat":31.245298,"lng":121.543438,"minutes":68,"tier":5},{"id":"spider_招远小区_浦东","name":"招远小区","lat":30.991615,"lng":121.40132,"minutes":120,"tier":5},{"id":"spider_崂山二村_浦东","name":"崂山二村","lat":31.240227,"lng":121.525372,"minutes":73,"tier":5},{"id":"spider_梅园教师公寓_浦东","name":"梅园教师公寓","lat":31.243281,"lng":121.525884,"minutes":75,"tier":5},{"id":"spider_中信五牛城_浦东","name":"中信五牛城","lat":31.244718,"lng":121.53379,"minutes":73,"tier":5},{"id":"spider_崂山五村_浦东","name":"崂山五村","lat":31.239381,"lng":121.519678,"minutes":65,"tier":5},{"id":"spider_乳山五村_浦东","name":"乳山五村","lat":31.233832,"lng":121.524257,"minutes":63,"tier":5},{"id":"spider_荣成小区_浦东","name":"荣成小区","lat":30.994113,"lng":121.403486,"minutes":112,"tier":5},{"id":"spider_金露苑_浦东","name":"金露苑","lat":31.241713,"lng":121.547808,"minutes":78,"tier":5},{"id":"spider_荣成路41弄_浦东","name":"荣成路41弄","lat":30.909523,"lng":121.362923,"minutes":141,"tier":5},{"id":"spider_中星巨野公寓_浦东","name":"中星巨野公寓","lat":31.245161,"lng":121.552146,"minutes":81,"tier":5},{"id":"spider_三航小区_浦东","name":"三航小区","lat":31.237573,"lng":121.514046,"minutes":66,"tier":5},{"id":"spider_崂山六村_浦东","name":"崂山六村","lat":31.243819,"lng":121.522956,"minutes":75,"tier":5},{"id":"spider_荣成路17弄_浦东","name":"荣成路17弄","lat":31.246468,"lng":121.524619,"minutes":82,"tier":5},{"id":"spider_万源晶典_浦东","name":"万源晶典","lat":31.24426,"lng":121.525461,"minutes":77,"tier":5},{"id":"spider_港机新村_浦东","name":"港机新村","lat":31.194444,"lng":121.511857,"minutes":65,"tier":5},{"id":"spider_临沂八村_浦东","name":"临沂八村","lat":31.19886,"lng":121.520906,"minutes":71,"tier":5},{"id":"spider_东方路3721弄_浦东","name":"东方路3721弄","lat":31.192446,"lng":121.52338,"minutes":64,"tier":5},{"id":"spider_浦三路641弄_浦东","name":"浦三路641弄","lat":31.194015,"lng":121.523387,"minutes":66,"tier":5},{"id":"spider_沈家宅_浦东","name":"沈家宅","lat":31.19236,"lng":121.525243,"minutes":63,"tier":5},{"id":"spider_明丰佳园_浦东","name":"明丰佳园","lat":31.199598,"lng":121.523874,"minutes":69,"tier":5},{"id":"spider_鹏欣家园_浦东","name":"鹏欣家园","lat":31.200927,"lng":121.525114,"minutes":72,"tier":5},{"id":"spider_沂南路42弄_浦东","name":"沂南路42弄","lat":31.201065,"lng":121.511282,"minutes":65,"tier":5},{"id":"spider_临沂大楼_浦东","name":"临沂大楼","lat":31.199826,"lng":121.522848,"minutes":68,"tier":5},{"id":"spider_南码头路144弄_浦东","name":"南码头路144弄","lat":31.202265,"lng":121.51078,"minutes":78,"tier":5},{"id":"spider_临沂三村_浦东","name":"临沂三村","lat":31.197156,"lng":121.512068,"minutes":70,"tier":5},{"id":"spider_西三里桥路9弄_浦东","name":"西三里桥路9弄","lat":31.196851,"lng":121.513182,"minutes":72,"tier":5},{"id":"spider_银河小区_浦东","name":"银河小区","lat":31.196866,"lng":121.508813,"minutes":68,"tier":5},{"id":"spider_华南名苑_浦东","name":"华南名苑","lat":31.1912,"lng":121.506925,"minutes":62,"tier":5},{"id":"spider_临沂五村_浦东","name":"临沂五村","lat":31.194461,"lng":121.514259,"minutes":67,"tier":5},{"id":"spider_东方名筑_浦东","name":"东方名筑","lat":31.202516,"lng":121.522519,"minutes":64,"tier":5},{"id":"spider_东方丰甸苑(别墅)_浦东","name":"东方丰甸苑(别墅)","lat":31.195614,"lng":121.5234,"minutes":73,"tier":5},{"id":"spider_塘南路159弄_浦东","name":"塘南路159弄","lat":31.204276,"lng":121.511884,"minutes":71,"tier":5},{"id":"spider_胶南小区_浦东","name":"胶南小区","lat":31.200725,"lng":121.51081,"minutes":65,"tier":5},{"id":"spider_汇众公寓(浦东)_浦东","name":"汇众公寓(浦东)","lat":31.190987,"lng":121.51863,"minutes":64,"tier":5},{"id":"spider_浦三路601弄_浦东","name":"浦三路601弄","lat":31.190854,"lng":121.519739,"minutes":64,"tier":5},{"id":"spider_南码头路193弄_浦东","name":"南码头路193弄","lat":31.200011,"lng":121.509824,"minutes":65,"tier":5},{"id":"spider_临沂一村_浦东","name":"临沂一村","lat":31.202477,"lng":121.517366,"minutes":67,"tier":5},{"id":"spider_西三里桥路8弄_浦东","name":"西三里桥路8弄","lat":31.201192,"lng":121.508823,"minutes":76,"tier":5},{"id":"spider_华丰路12号_浦东","name":"华丰路12号","lat":31.195054,"lng":121.510345,"minutes":64,"tier":5},{"id":"spider_铭城园_浦东","name":"铭城园","lat":31.194323,"lng":121.522452,"minutes":68,"tier":5},{"id":"spider_塘南小区_浦东","name":"塘南小区","lat":31.205607,"lng":121.514355,"minutes":64,"tier":5},{"id":"spider_海博大厦_浦东","name":"海博大厦","lat":31.204165,"lng":121.511095,"minutes":71,"tier":5},{"id":"spider_荷风华庭_浦东","name":"荷风华庭","lat":30.915377,"lng":121.80851,"minutes":151,"tier":5},{"id":"spider_荷风翠庭_浦东","name":"荷风翠庭","lat":30.914385,"lng":121.811097,"minutes":164,"tier":5},{"id":"spider_清风丽苑_浦东","name":"清风丽苑","lat":30.912774,"lng":121.814603,"minutes":146,"tier":5},{"id":"spider_清风名苑_浦东","name":"清风名苑","lat":30.911991,"lng":121.815876,"minutes":143,"tier":5},{"id":"spider_蓝色城邦(公寓)_浦东","name":"蓝色城邦(公寓)","lat":30.904747,"lng":121.814595,"minutes":154,"tier":5},{"id":"spider_泥城苑_浦东","name":"泥城苑","lat":30.907611,"lng":121.825994,"minutes":144,"tier":5},{"id":"spider_农具新村_浦东","name":"农具新村","lat":30.908771,"lng":121.835532,"minutes":164,"tier":5},{"id":"spider_云帆花苑_浦东","name":"云帆花苑","lat":30.903159,"lng":121.818472,"minutes":155,"tier":5},{"id":"spider_云松翠庭_浦东","name":"云松翠庭","lat":30.902466,"lng":121.815707,"minutes":155,"tier":5},{"id":"spider_云汉富颐苑_浦东","name":"云汉富颐苑","lat":30.91746,"lng":121.804824,"minutes":151,"tier":5},{"id":"spider_荷风景庭_浦东","name":"荷风景庭","lat":30.914834,"lng":121.811256,"minutes":165,"tier":5},{"id":"spider_碧桂园浦东星作_浦东","name":"碧桂园浦东星作","lat":30.910774,"lng":121.80908,"minutes":154,"tier":5},{"id":"spider_云锦名苑_浦东","name":"云锦名苑","lat":30.903855,"lng":121.827954,"minutes":152,"tier":5},{"id":"spider_清风雅苑_浦东","name":"清风雅苑","lat":30.914504,"lng":121.817852,"minutes":147,"tier":5},{"id":"spider_东亚阳光里_浦东","name":"东亚阳光里","lat":30.910538,"lng":121.813382,"minutes":147,"tier":5},{"id":"spider_颐和泊雅轩_浦东","name":"颐和泊雅轩","lat":30.912304,"lng":121.817609,"minutes":144,"tier":5},{"id":"spider_丽都璟庭_浦东","name":"丽都璟庭","lat":30.909049,"lng":121.816791,"minutes":146,"tier":5},{"id":"spider_泥城路12弄_浦东","name":"泥城路12弄","lat":30.90504,"lng":121.827232,"minutes":147,"tier":5},{"id":"spider_云树欣居_浦东","name":"云树欣居","lat":30.902084,"lng":121.807865,"minutes":167,"tier":5},{"id":"spider_云锦佳苑_浦东","name":"云锦佳苑","lat":30.902605,"lng":121.828599,"minutes":148,"tier":5},{"id":"spider_云松华庭_浦东","name":"云松华庭","lat":30.904875,"lng":121.813553,"minutes":159,"tier":5},{"id":"spider_美芦苑_浦东","name":"美芦苑","lat":30.895849,"lng":121.844079,"minutes":154,"tier":5},{"id":"spider_瑞康苑_浦东","name":"瑞康苑","lat":31.128628,"lng":121.513432,"minutes":87,"tier":5},{"id":"spider_未来域_浦东","name":"未来域","lat":31.152181,"lng":121.541433,"minutes":59,"tier":5},{"id":"spider_凌兆新村(上浦路510弄)_浦东","name":"凌兆新村(上浦路510弄)","lat":31.150577,"lng":121.50457,"minutes":64,"tier":5},{"id":"spider_浦发绿城浦三路2801弄_浦东","name":"浦发绿城浦三路2801弄","lat":31.157607,"lng":121.540842,"minutes":68,"tier":5},{"id":"spider_浦发绿城永泰路2079弄_浦东","name":"浦发绿城永泰路2079弄","lat":31.131366,"lng":121.533092,"minutes":71,"tier":5},{"id":"spider_依水园一期_浦东","name":"依水园一期","lat":31.126841,"lng":121.514277,"minutes":101,"tier":5},{"id":"spider_岭南苑(凌兆路127弄)_浦东","name":"岭南苑(凌兆路127弄)","lat":31.146292,"lng":121.498537,"minutes":90,"tier":5},{"id":"spider_盛世南苑_浦东","name":"盛世南苑","lat":31.12465,"lng":121.505729,"minutes":85,"tier":5},{"id":"spider_金谊河畔_浦东","name":"金谊河畔","lat":31.131506,"lng":121.525174,"minutes":169,"tier":5},{"id":"spider_保利林语溪(公寓)_浦东","name":"保利林语溪(公寓)","lat":31.136051,"lng":121.542142,"minutes":240,"tier":5},{"id":"spider_东方康德家园二期_浦东","name":"东方康德家园二期","lat":31.13084,"lng":121.516658,"minutes":73,"tier":5},{"id":"spider_凌兆新村(凌兆路256弄)_浦东","name":"凌兆新村(凌兆路256弄)","lat":31.143464,"lng":121.499611,"minutes":64,"tier":5},{"id":"spider_同康苑_浦东","name":"同康苑","lat":31.124112,"lng":121.509065,"minutes":79,"tier":5},{"id":"spider_凌兆新村(上浦路202弄)_浦东","name":"凌兆新村(上浦路202弄)","lat":31.148763,"lng":121.49726,"minutes":84,"tier":5},{"id":"spider_三林新村(永泰路136弄)_浦东","name":"三林新村(永泰路136弄)","lat":31.138441,"lng":121.508674,"minutes":69,"tier":5},{"id":"spider_凌兆新村(凌兆路586弄)_浦东","name":"凌兆新村(凌兆路586弄)","lat":31.146381,"lng":121.50805,"minutes":88,"tier":5},{"id":"spider_凌兆新村(上浦路336弄)_浦东","name":"凌兆新村(上浦路336弄)","lat":31.150057,"lng":121.500449,"minutes":66,"tier":5},{"id":"spider_古银杏苑_浦东","name":"古银杏苑","lat":31.145578,"lng":121.532324,"minutes":170,"tier":5},{"id":"spider_银杏苑(三林)_浦东","name":"银杏苑(三林)","lat":31.141092,"lng":121.52694,"minutes":162,"tier":5},{"id":"spider_万科金色雅筑_浦东","name":"万科金色雅筑","lat":31.14777,"lng":121.523752,"minutes":155,"tier":5},{"id":"spider_杉林新月环林东路799弄_浦东","name":"杉林新月环林东路799弄","lat":31.147079,"lng":121.537486,"minutes":63,"tier":5},{"id":"spider_凌兆路608弄_浦东","name":"凌兆路608弄","lat":31.146561,"lng":121.50914,"minutes":88,"tier":5},{"id":"spider_凌兆新村(上浦路565弄)_浦东","name":"凌兆新村(上浦路565弄)","lat":31.148926,"lng":121.499725,"minutes":86,"tier":5},{"id":"spider_凌兆新村(凌兆路379弄)_浦东","name":"凌兆新村(凌兆路379弄)","lat":31.148832,"lng":121.50319,"minutes":86,"tier":5},{"id":"spider_浦发绿城西泰林路850弄_浦东","name":"浦发绿城西泰林路850弄","lat":31.147041,"lng":121.544867,"minutes":65,"tier":5},{"id":"spider_三林新村(永泰路468弄)_浦东","name":"三林新村(永泰路468弄)","lat":31.141363,"lng":121.517285,"minutes":60,"tier":5},{"id":"spider_杉林新月环林东路875弄_浦东","name":"杉林新月环林东路875弄","lat":31.146207,"lng":121.518087,"minutes":152,"tier":5},{"id":"spider_东方康德家园一期_浦东","name":"东方康德家园一期","lat":31.129633,"lng":121.518247,"minutes":159,"tier":5},{"id":"spider_永泰花苑_浦东","name":"永泰花苑","lat":31.143137,"lng":121.522024,"minutes":154,"tier":5},{"id":"spider_凌兆新村(凌兆路334弄)_浦东","name":"凌兆新村(凌兆路334弄)","lat":31.145995,"lng":121.502388,"minutes":67,"tier":5},{"id":"spider_绿地香颂(浦东)(公寓)_浦东","name":"绿地香颂(浦东)(公寓)","lat":31.134262,"lng":121.539144,"minutes":80,"tier":5},{"id":"spider_金橘新苑（南区）_浦东","name":"金橘新苑（南区）","lat":31.135599,"lng":121.527775,"minutes":87,"tier":5},{"id":"spider_金桂苑(浦东)_浦东","name":"金桂苑(浦东)","lat":31.144201,"lng":121.527399,"minutes":163,"tier":5},{"id":"spider_中海御景熙岸(别墅)_浦东","name":"中海御景熙岸(别墅)","lat":31.125521,"lng":121.530059,"minutes":167,"tier":5},{"id":"spider_林梅小区_浦东","name":"林梅小区","lat":31.144996,"lng":121.511694,"minutes":103,"tier":5},{"id":"spider_城林美苑西区（三舒路62弄）_浦东","name":"城林美苑西区（三舒路62弄）","lat":31.128767,"lng":121.506523,"minutes":73,"tier":5},{"id":"spider_凌兆佳苑_浦东","name":"凌兆佳苑","lat":31.150226,"lng":121.498831,"minutes":86,"tier":5},{"id":"spider_金禾新苑_浦东","name":"金禾新苑","lat":31.153903,"lng":121.531484,"minutes":161,"tier":5},{"id":"spider_品珍苑_浦东","name":"品珍苑","lat":31.144775,"lng":121.526735,"minutes":160,"tier":5},{"id":"spider_品新苑_浦东","name":"品新苑","lat":31.143395,"lng":121.528174,"minutes":162,"tier":5},{"id":"spider_绿波家园_浦东","name":"绿波家园","lat":31.123636,"lng":121.507822,"minutes":78,"tier":5},{"id":"spider_金地湾流域（三期366弄别墅/大平层）_浦东","name":"金地湾流域（三期366弄别墅/大平层）","lat":31.149532,"lng":121.508153,"minutes":80,"tier":5},{"id":"spider_凌兆新村(上浦路69弄)_浦东","name":"凌兆新村(上浦路69弄)","lat":31.149441,"lng":121.49561,"minutes":88,"tier":5},{"id":"spider_凌兆新村(上浦路355弄)_浦东","name":"凌兆新村(上浦路355弄)","lat":31.148737,"lng":121.498618,"minutes":85,"tier":5},{"id":"spider_凌霄苑_浦东","name":"凌霄苑","lat":31.142683,"lng":121.530146,"minutes":167,"tier":5},{"id":"spider_凌兆新村(上浦路480弄)_浦东","name":"凌兆新村(上浦路480弄)","lat":31.148303,"lng":121.500799,"minutes":82,"tier":5},{"id":"spider_三林新村_浦东","name":"三林新村","lat":31.139878,"lng":121.506768,"minutes":60,"tier":5},{"id":"spider_凌兆新村(三林路711弄)_浦东","name":"凌兆新村(三林路711弄)","lat":31.145149,"lng":121.509511,"minutes":98,"tier":5},{"id":"spider_凌兆新村(凌兆路555弄)_浦东","name":"凌兆新村(凌兆路555弄)","lat":31.147981,"lng":121.506277,"minutes":85,"tier":5},{"id":"spider_浦发绿城东泰林路799弄_浦东","name":"浦发绿城东泰林路799弄","lat":31.153459,"lng":121.527979,"minutes":109,"tier":5},{"id":"spider_凌兆新村(凌兆路500弄)_浦东","name":"凌兆新村(凌兆路500弄)","lat":31.146308,"lng":121.503476,"minutes":65,"tier":5},{"id":"spider_品诚苑_浦东","name":"品诚苑","lat":31.140968,"lng":121.524262,"minutes":62,"tier":5},{"id":"spider_城林嘉苑_浦东","name":"城林嘉苑","lat":31.127076,"lng":121.513588,"minutes":89,"tier":5},{"id":"spider_凌兆新村(凌兆路285弄)_浦东","name":"凌兆新村(凌兆路285弄)","lat":31.145286,"lng":121.497585,"minutes":62,"tier":5},{"id":"spider_金光小区_浦东","name":"金光小区","lat":31.133515,"lng":121.522558,"minutes":161,"tier":5},{"id":"spider_凌兆新村(上浦路606弄)_浦东","name":"凌兆新村(上浦路606弄)","lat":31.151014,"lng":121.506522,"minutes":89,"tier":5},{"id":"spider_红柿苑_浦东","name":"红柿苑","lat":31.142584,"lng":121.528072,"minutes":163,"tier":5},{"id":"spider_东方康达家苑一期_浦东","name":"东方康达家苑一期","lat":31.12786,"lng":121.510629,"minutes":84,"tier":5},{"id":"spider_玉兰苑(三林)_浦东","name":"玉兰苑(三林)","lat":31.146374,"lng":121.50864,"minutes":88,"tier":5},{"id":"spider_凌兆新村(凌兆路711弄)_浦东","name":"凌兆新村(凌兆路711弄)","lat":31.151757,"lng":121.511331,"minutes":90,"tier":5},{"id":"spider_凌兆新村(凌兆路428弄)_浦东","name":"凌兆新村(凌兆路428弄)","lat":31.148135,"lng":121.505865,"minutes":86,"tier":5},{"id":"spider_康德家园三期_浦东","name":"康德家园三期","lat":31.13487,"lng":121.517757,"minutes":72,"tier":5},{"id":"spider_金地湾流域（四期485弄）_浦东","name":"金地湾流域（四期485弄）","lat":31.125521,"lng":121.530059,"minutes":167,"tier":5},{"id":"spider_保利林语溪(别墅)_浦东","name":"保利林语溪(别墅)","lat":31.137589,"lng":121.543755,"minutes":237,"tier":5},{"id":"spider_六里二村_浦东","name":"六里二村","lat":31.19015,"lng":121.523878,"minutes":60,"tier":5},{"id":"spider_逸翠公馆_浦东","name":"逸翠公馆","lat":31.17363,"lng":121.513682,"minutes":65,"tier":5},{"id":"spider_上南九村_浦东","name":"上南九村","lat":31.170863,"lng":121.509728,"minutes":69,"tier":5},{"id":"spider_上南三村_浦东","name":"上南三村","lat":31.17437,"lng":121.49636,"minutes":55,"tier":4},{"id":"spider_新世纪花苑(三期)(浦东)_浦东","name":"新世纪花苑(三期)(浦东)","lat":31.17129,"lng":121.501061,"minutes":67,"tier":5},{"id":"spider_上南六村_浦东","name":"上南六村","lat":31.172831,"lng":121.510597,"minutes":65,"tier":5},{"id":"spider_昌七小区_浦东","name":"昌七小区","lat":31.178641,"lng":121.522732,"minutes":73,"tier":5},{"id":"spider_东明苑_浦东","name":"东明苑","lat":31.192882,"lng":121.514973,"minutes":64,"tier":5},{"id":"spider_新世纪花苑(一期)(浦东)_浦东","name":"新世纪花苑(一期)(浦东)","lat":31.172429,"lng":121.502255,"minutes":67,"tier":5},{"id":"spider_上南四村_浦东","name":"上南四村","lat":31.176125,"lng":121.500907,"minutes":60,"tier":5},{"id":"spider_上钢三村_浦东","name":"上钢三村","lat":31.178382,"lng":121.496421,"minutes":47,"tier":4},{"id":"spider_上南八村_浦东","name":"上南八村","lat":31.177016,"lng":121.507432,"minutes":62,"tier":5},{"id":"spider_上南花城_浦东","name":"上南花城","lat":31.182134,"lng":121.495336,"minutes":52,"tier":4},{"id":"spider_上南十二村_浦东","name":"上南十二村","lat":31.172595,"lng":121.508855,"minutes":66,"tier":5},{"id":"spider_上南十一村_浦东","name":"上南十一村","lat":31.171613,"lng":121.503253,"minutes":69,"tier":5},{"id":"spider_轻工六里小区_浦东","name":"轻工六里小区","lat":31.185998,"lng":121.521892,"minutes":61,"tier":5},{"id":"spider_博爱家园_浦东","name":"博爱家园","lat":31.177942,"lng":121.513338,"minutes":68,"tier":5},{"id":"spider_东盛公寓_浦东","name":"东盛公寓","lat":31.186087,"lng":121.524633,"minutes":58,"tier":5},{"id":"spider_中星云庭_浦东","name":"中星云庭","lat":31.171777,"lng":121.505506,"minutes":65,"tier":5},{"id":"spider_东丽苑_浦东","name":"东丽苑","lat":31.187691,"lng":121.518644,"minutes":59,"tier":5},{"id":"spider_德州六村_浦东","name":"德州六村","lat":31.171002,"lng":121.494771,"minutes":58,"tier":5},{"id":"spider_上钢八九村_浦东","name":"上钢八九村","lat":31.17716,"lng":121.489269,"minutes":49,"tier":4},{"id":"spider_上钢二村_浦东","name":"上钢二村","lat":31.180324,"lng":121.497416,"minutes":53,"tier":4},{"id":"spider_上钢六村_浦东","name":"上钢六村","lat":31.17515,"lng":121.493443,"minutes":56,"tier":5},{"id":"spider_都市庭院_浦东","name":"都市庭院","lat":31.182847,"lng":121.509969,"minutes":53,"tier":4},{"id":"spider_上南二村洪高小区_浦东","name":"上南二村洪高小区","lat":31.177766,"lng":121.501097,"minutes":57,"tier":5},{"id":"spider_明珠花苑(浦东)_浦东","name":"明珠花苑(浦东)","lat":31.170433,"lng":121.48596,"minutes":51,"tier":4},{"id":"spider_洪山花苑_浦东","name":"洪山花苑","lat":31.172201,"lng":121.502481,"minutes":67,"tier":5},{"id":"spider_长清路1-3号_浦东","name":"长清路1-3号","lat":31.177689,"lng":121.491103,"minutes":51,"tier":4},{"id":"spider_德西大楼_浦东","name":"德西大楼","lat":31.168433,"lng":121.486195,"minutes":59,"tier":5},{"id":"spider_耀华大楼_浦东","name":"耀华大楼","lat":31.181009,"lng":121.497486,"minutes":54,"tier":4},{"id":"spider_齐河花苑_浦东","name":"齐河花苑","lat":31.040025,"lng":121.348639,"minutes":121,"tier":5},{"id":"spider_德州三村_浦东","name":"德州三村","lat":31.172372,"lng":121.494386,"minutes":55,"tier":4},{"id":"spider_上钢七村_浦东","name":"上钢七村","lat":31.171514,"lng":121.503691,"minutes":69,"tier":5},{"id":"spider_博文园_浦东","name":"博文园","lat":31.184958,"lng":121.504324,"minutes":57,"tier":5},{"id":"spider_东瑞公寓_浦东","name":"东瑞公寓","lat":31.186405,"lng":121.50876,"minutes":50,"tier":4},{"id":"spider_齐河三小区_浦东","name":"齐河三小区","lat":31.034166,"lng":121.461619,"minutes":94,"tier":5},{"id":"spider_华业翠都_浦东","name":"华业翠都","lat":31.18927,"lng":121.523275,"minutes":58,"tier":5},{"id":"spider_德州五村_浦东","name":"德州五村","lat":31.168063,"lng":121.495343,"minutes":63,"tier":5},{"id":"spider_昌里众盛苑_浦东","name":"昌里众盛苑","lat":31.18016,"lng":121.520887,"minutes":67,"tier":5},{"id":"spider_浦三路759弄_浦东","name":"浦三路759弄","lat":31.190298,"lng":121.525618,"minutes":59,"tier":5},{"id":"spider_博文家园_浦东","name":"博文家园","lat":31.085315,"lng":121.478895,"minutes":125,"tier":5},{"id":"spider_住友昌盛新苑_浦东","name":"住友昌盛新苑","lat":31.18393,"lng":121.515825,"minutes":62,"tier":5},{"id":"spider_浦三路732弄_浦东","name":"浦三路732弄","lat":31.190989,"lng":121.524301,"minutes":61,"tier":5},{"id":"spider_昌里花园(二期)_浦东","name":"昌里花园(二期)","lat":31.170855,"lng":121.513546,"minutes":66,"tier":5},{"id":"spider_浦祥苑_浦东","name":"浦祥苑","lat":31.190153,"lng":121.524896,"minutes":55,"tier":4},{"id":"spider_六里新村_浦东","name":"六里新村","lat":31.170855,"lng":121.513546,"minutes":66,"tier":5},{"id":"spider_联城花苑_浦东","name":"联城花苑","lat":31.172135,"lng":121.492269,"minutes":55,"tier":4},{"id":"spider_丽泽荷亭苑_浦东","name":"丽泽荷亭苑","lat":30.9785,"lng":121.878201,"minutes":130,"tier":5},{"id":"spider_浦建小区_浦东","name":"浦建小区","lat":31.213724,"lng":121.524272,"minutes":66,"tier":5},{"id":"spider_南泉小区_浦东","name":"南泉小区","lat":31.214988,"lng":121.5261,"minutes":69,"tier":5},{"id":"spider_蓝高小区_浦东","name":"蓝高小区","lat":31.213991,"lng":121.534722,"minutes":68,"tier":5},{"id":"spider_微山二村_浦东","name":"微山二村","lat":31.212136,"lng":121.517511,"minutes":59,"tier":5},{"id":"spider_港驳小区_浦东","name":"港驳小区","lat":31.217894,"lng":121.531408,"minutes":67,"tier":5},{"id":"spider_峨海小区_浦东","name":"峨海小区","lat":31.204564,"lng":121.540297,"minutes":83,"tier":5},{"id":"spider_浦江海景_浦东","name":"浦江海景","lat":31.204428,"lng":121.531051,"minutes":78,"tier":5},{"id":"spider_九龙仓滨江壹十八_浦东","name":"九龙仓滨江壹十八","lat":31.21707,"lng":121.520876,"minutes":69,"tier":5},{"id":"spider_微山三村_浦东","name":"微山三村","lat":31.210867,"lng":121.515169,"minutes":59,"tier":5},{"id":"spider_仕嘉名苑_浦东","name":"仕嘉名苑","lat":31.204666,"lng":121.541445,"minutes":81,"tier":5},{"id":"spider_仁恒广场_浦东","name":"仁恒广场","lat":31.213167,"lng":121.51834,"minutes":60,"tier":5},{"id":"spider_国地公寓_浦东","name":"国地公寓","lat":31.208575,"lng":121.517129,"minutes":58,"tier":5},{"id":"spider_浦江映象_浦东","name":"浦江映象","lat":31.217141,"lng":121.523617,"minutes":72,"tier":5},{"id":"spider_贵龙园_浦东","name":"贵龙园","lat":31.208562,"lng":121.529117,"minutes":67,"tier":5},{"id":"spider_东源大厦_浦东","name":"东源大厦","lat":31.213377,"lng":121.522526,"minutes":67,"tier":5},{"id":"spider_盛族家园-悉尼阳光·悉尼星光_浦东","name":"盛族家园-悉尼阳光·悉尼星光","lat":31.208889,"lng":121.523035,"minutes":59,"tier":5},{"id":"spider_金龙花园_浦东","name":"金龙花园","lat":31.212872,"lng":121.531203,"minutes":62,"tier":5},{"id":"spider_浦建727_浦东","name":"浦建727","lat":31.212012,"lng":121.534838,"minutes":66,"tier":5},{"id":"spider_南泉公寓_浦东","name":"南泉公寓","lat":31.217767,"lng":121.527699,"minutes":69,"tier":5},{"id":"spider_山泉花苑_浦东","name":"山泉花苑","lat":31.219213,"lng":121.525954,"minutes":69,"tier":5},{"id":"spider_新都花园_浦东","name":"新都花园","lat":31.21656,"lng":121.536538,"minutes":73,"tier":5},{"id":"spider_越富豪庭_浦东","name":"越富豪庭","lat":31.216148,"lng":121.521995,"minutes":72,"tier":5},{"id":"spider_龙阳小区_浦东","name":"龙阳小区","lat":31.210882,"lng":121.524079,"minutes":63,"tier":5},{"id":"spider_航运小区_浦东","name":"航运小区","lat":31.218587,"lng":121.525959,"minutes":70,"tier":5},{"id":"spider_东南华庭_浦东","name":"东南华庭","lat":31.209144,"lng":121.520648,"minutes":56,"tier":5},{"id":"spider_金龙东苑_浦东","name":"金龙东苑","lat":31.211722,"lng":121.531571,"minutes":61,"tier":5},{"id":"spider_久事大桥公寓_浦东","name":"久事大桥公寓","lat":31.213126,"lng":121.52354,"minutes":64,"tier":5},{"id":"spider_宁阳小区_浦东","name":"宁阳小区","lat":31.211717,"lng":121.517442,"minutes":59,"tier":5},{"id":"spider_塘桥小区_浦东","name":"塘桥小区","lat":31.214944,"lng":121.525202,"minutes":67,"tier":5},{"id":"spider_众城商厦_浦东","name":"众城商厦","lat":31.210551,"lng":121.519981,"minutes":56,"tier":5},{"id":"spider_东方天伦大厦_浦东","name":"东方天伦大厦","lat":31.217128,"lng":121.521836,"minutes":69,"tier":5},{"id":"spider_君誉江畔_浦东","name":"君誉江畔","lat":31.214855,"lng":121.522828,"minutes":68,"tier":5},{"id":"spider_宏润公寓_浦东","name":"宏润公寓","lat":31.212048,"lng":121.522672,"minutes":63,"tier":5},{"id":"spider_新塘桥生活广场_浦东","name":"新塘桥生活广场","lat":31.217017,"lng":121.524591,"minutes":73,"tier":5},{"id":"spider_浦东南路2054弄_浦东","name":"浦东南路2054弄","lat":31.216664,"lng":121.523513,"minutes":71,"tier":5},{"id":"spider_仁恒东郊花园_浦东","name":"仁恒东郊花园","lat":31.22959,"lng":121.676418,"minutes":122,"tier":5},{"id":"spider_鑫港苑_浦东","name":"鑫港苑","lat":31.244455,"lng":121.684514,"minutes":94,"tier":5},{"id":"spider_浦发罗兰翡丽_浦东","name":"浦发罗兰翡丽","lat":31.229024,"lng":121.677962,"minutes":117,"tier":5},{"id":"spider_金利公寓_浦东","name":"金利公寓","lat":31.206993,"lng":121.667443,"minutes":101,"tier":5},{"id":"spider_绿城玉兰花园(三期公馆)_浦东","name":"绿城玉兰花园(三期公馆)","lat":31.21419,"lng":121.652552,"minutes":89,"tier":5},{"id":"spider_绿波城_浦东","name":"绿波城","lat":31.213626,"lng":121.670176,"minutes":94,"tier":5},{"id":"spider_保利御樽苑(公寓)_浦东","name":"保利御樽苑(公寓)","lat":31.209052,"lng":121.654504,"minutes":93,"tier":5},{"id":"spider_金融家_浦东","name":"金融家","lat":31.247018,"lng":121.67646,"minutes":104,"tier":5},{"id":"spider_同景苑_浦东","name":"同景苑","lat":31.247698,"lng":121.68052,"minutes":99,"tier":5},{"id":"spider_华昌小区_浦东","name":"华昌小区","lat":31.242533,"lng":121.687613,"minutes":97,"tier":5},{"id":"spider_金大元御珑宫廷(别墅)_浦东","name":"金大元御珑宫廷(别墅)","lat":31.208367,"lng":121.656257,"minutes":92,"tier":5},{"id":"spider_金盛佳苑_浦东","name":"金盛佳苑","lat":31.245973,"lng":121.689999,"minutes":103,"tier":5},{"id":"spider_光明·唐镇壹号_浦东","name":"光明·唐镇壹号","lat":31.241137,"lng":121.690625,"minutes":109,"tier":5},{"id":"spider_圣马丽诺桥语_浦东","name":"圣马丽诺桥语","lat":31.221856,"lng":121.655198,"minutes":94,"tier":5},{"id":"spider_鑫唐佳苑_浦东","name":"鑫唐佳苑","lat":31.206956,"lng":121.65886,"minutes":107,"tier":5},{"id":"spider_王桥小区_浦东","name":"王桥小区","lat":31.237199,"lng":121.684624,"minutes":97,"tier":5},{"id":"spider_玉兰香苑(四期)_浦东","name":"玉兰香苑(四期)","lat":31.20312,"lng":121.640631,"minutes":101,"tier":5},{"id":"spider_新雅小区_浦东","name":"新雅小区","lat":31.242822,"lng":121.690564,"minutes":107,"tier":5},{"id":"spider_虹盛小区_浦东","name":"虹盛小区","lat":31.243874,"lng":121.689608,"minutes":100,"tier":5},{"id":"spider_星纪元_浦东","name":"星纪元","lat":31.212929,"lng":121.655572,"minutes":83,"tier":5},{"id":"spider_张江公馆_浦东","name":"张江公馆","lat":31.204753,"lng":121.638671,"minutes":96,"tier":5},{"id":"spider_潼港八村_浦东","name":"潼港八村","lat":31.352403,"lng":121.576351,"minutes":98,"tier":5},{"id":"spider_富特五村_浦东","name":"富特五村","lat":31.342345,"lng":121.588576,"minutes":106,"tier":5},{"id":"spider_中凌滨江苑_浦东","name":"中凌滨江苑","lat":31.371339,"lng":121.548379,"minutes":141,"tier":5},{"id":"spider_高桥二村_浦东","name":"高桥二村","lat":31.349605,"lng":121.581141,"minutes":106,"tier":5},{"id":"spider_上炼三村_浦东","name":"上炼三村","lat":31.169396,"lng":121.551223,"minutes":81,"tier":5},{"id":"spider_潼港五村_浦东","name":"潼港五村","lat":31.347396,"lng":121.573145,"minutes":105,"tier":5},{"id":"spider_潼港三村_浦东","name":"潼港三村","lat":31.341935,"lng":121.575795,"minutes":108,"tier":5},{"id":"spider_港城新苑_浦东","name":"港城新苑","lat":31.35588,"lng":121.584189,"minutes":110,"tier":5},{"id":"spider_海高新村_浦东","name":"海高新村","lat":31.353165,"lng":121.588664,"minutes":108,"tier":5},{"id":"spider_富特四村_浦东","name":"富特四村","lat":31.343401,"lng":121.592266,"minutes":110,"tier":5},{"id":"spider_南新西园_浦东","name":"南新西园","lat":31.331457,"lng":121.586116,"minutes":110,"tier":5},{"id":"spider_尼德兰花园(一期)_浦东","name":"尼德兰花园(一期)","lat":31.322615,"lng":121.607977,"minutes":99,"tier":5},{"id":"spider_永久城市花园_浦东","name":"永久城市花园","lat":31.340948,"lng":121.593073,"minutes":104,"tier":5},{"id":"spider_高南新村_浦东","name":"高南新村","lat":31.34442,"lng":121.58904,"minutes":102,"tier":5},{"id":"spider_天鹅泉公寓_浦东","name":"天鹅泉公寓","lat":31.337754,"lng":121.578304,"minutes":108,"tier":5},{"id":"spider_金纬苑_浦东","name":"金纬苑","lat":31.345953,"lng":121.592804,"minutes":105,"tier":5},{"id":"spider_尼德兰北岸_浦东","name":"尼德兰北岸","lat":31.335711,"lng":121.580501,"minutes":111,"tier":5},{"id":"spider_陆凌新村_浦东","name":"陆凌新村","lat":31.350745,"lng":121.564719,"minutes":99,"tier":5},{"id":"spider_潼港西八村_浦东","name":"潼港西八村","lat":31.353325,"lng":121.573431,"minutes":95,"tier":5},{"id":"spider_潼港二村_浦东","name":"潼港二村","lat":31.344007,"lng":121.578517,"minutes":105,"tier":5},{"id":"spider_潼港六村_浦东","name":"潼港六村","lat":31.345121,"lng":121.57546,"minutes":111,"tier":5},{"id":"spider_学前二村_浦东","name":"学前二村","lat":31.350291,"lng":121.588059,"minutes":100,"tier":5},{"id":"spider_海高二村_浦东","name":"海高二村","lat":31.353605,"lng":121.584812,"minutes":106,"tier":5},{"id":"spider_品臻国际公寓_浦东","name":"品臻国际公寓","lat":31.348162,"lng":121.592199,"minutes":101,"tier":5},{"id":"spider_紫竹雅苑_浦东","name":"紫竹雅苑","lat":31.354438,"lng":121.565471,"minutes":106,"tier":5},{"id":"spider_大同路347弄_浦东","name":"大同路347弄","lat":31.346825,"lng":121.582727,"minutes":102,"tier":5},{"id":"spider_东义路21弄_浦东","name":"东义路21弄","lat":31.35004,"lng":121.588589,"minutes":99,"tier":5},{"id":"spider_尼德兰花园（三期）_浦东","name":"尼德兰花园（三期）","lat":31.319197,"lng":121.603584,"minutes":94,"tier":5},{"id":"spider_潼港一村_浦东","name":"潼港一村","lat":31.345855,"lng":121.579782,"minutes":110,"tier":5},{"id":"spider_高桥一村_浦东","name":"高桥一村","lat":31.34745,"lng":121.580706,"minutes":105,"tier":5},{"id":"spider_和龙新苑_浦东","name":"和龙新苑","lat":31.352987,"lng":121.570076,"minutes":99,"tier":5},{"id":"spider_海高一村_浦东","name":"海高一村","lat":31.35271,"lng":121.58717,"minutes":105,"tier":5},{"id":"spider_石家街151弄_浦东","name":"石家街151弄","lat":31.346108,"lng":121.583167,"minutes":102,"tier":5},{"id":"spider_石家街60弄_浦东","name":"石家街60弄","lat":31.350975,"lng":121.587455,"minutes":100,"tier":5},{"id":"spider_凯旋楼_浦东","name":"凯旋楼","lat":31.370487,"lng":121.550382,"minutes":138,"tier":5},{"id":"spider_运银公寓_浦东","name":"运银公寓","lat":31.348147,"lng":121.59242,"minutes":101,"tier":5},{"id":"spider_学前街13-15号_浦东","name":"学前街13-15号","lat":31.223022,"lng":121.49542,"minutes":59,"tier":5},{"id":"spider_华景苑_浦东","name":"华景苑","lat":31.341872,"lng":121.594512,"minutes":107,"tier":5},{"id":"spider_新凌家园_浦东","name":"新凌家园","lat":31.368631,"lng":121.54818,"minutes":118,"tier":5},{"id":"spider_高桥红坊_浦东","name":"高桥红坊","lat":31.352863,"lng":121.58089,"minutes":106,"tier":5},{"id":"spider_张家街45弄_浦东","name":"张家街45弄","lat":31.352411,"lng":121.585334,"minutes":104,"tier":5},{"id":"spider_大同路780弄_浦东","name":"大同路780弄","lat":31.344048,"lng":121.581271,"minutes":108,"tier":5},{"id":"spider_乐非天地_浦东","name":"乐非天地","lat":31.348623,"lng":121.59089,"minutes":101,"tier":5},{"id":"spider_东江新苑_浦东","name":"东江新苑","lat":31.370546,"lng":121.551734,"minutes":149,"tier":5},{"id":"spider_潍坊七村_浦东","name":"潍坊七村","lat":31.227289,"lng":121.525972,"minutes":58,"tier":5},{"id":"spider_开发浦东_浦东","name":"开发浦东","lat":31.228724,"lng":121.521743,"minutes":60,"tier":5},{"id":"spider_南泉大楼_浦东","name":"南泉大楼","lat":31.222577,"lng":121.52586,"minutes":66,"tier":5},{"id":"spider_潍坊一村_浦东","name":"潍坊一村","lat":31.219139,"lng":121.52231,"minutes":70,"tier":5},{"id":"spider_潍坊五村_浦东","name":"潍坊五村","lat":31.223711,"lng":121.528545,"minutes":65,"tier":5},{"id":"spider_竹南小区_浦东","name":"竹南小区","lat":31.230762,"lng":121.535191,"minutes":68,"tier":5},{"id":"spider_繁荣昌盛_浦东","name":"繁荣昌盛","lat":31.230701,"lng":121.524582,"minutes":57,"tier":5},{"id":"spider_锦城大厦_浦东","name":"锦城大厦","lat":31.226077,"lng":121.531131,"minutes":58,"tier":5},{"id":"spider_浦潍大楼_浦东","name":"浦潍大楼","lat":31.222667,"lng":121.529069,"minutes":63,"tier":5},{"id":"spider_新光大楼_浦东","name":"新光大楼","lat":31.231627,"lng":121.576619,"minutes":83,"tier":5},{"id":"spider_王家宅小区_浦东","name":"王家宅小区","lat":31.219493,"lng":121.528382,"minutes":66,"tier":5},{"id":"spider_紫金瀚宫_浦东","name":"紫金瀚宫","lat":31.228253,"lng":121.521801,"minutes":60,"tier":5},{"id":"spider_丝庐雅苑一期_浦东","name":"丝庐雅苑一期","lat":31.036619,"lng":121.659423,"minutes":107,"tier":5},{"id":"spider_汇锦城(一期)_浦东","name":"汇锦城(一期)","lat":31.035148,"lng":121.640659,"minutes":106,"tier":5},{"id":"spider_东方冠郡二期_浦东","name":"东方冠郡二期","lat":31.029815,"lng":121.659291,"minutes":101,"tier":5},{"id":"spider_景尚缇香_浦东","name":"景尚缇香","lat":31.023375,"lng":121.63907,"minutes":112,"tier":5},{"id":"spider_工农新村(新场)_浦东","name":"工农新村(新场)","lat":31.025133,"lng":121.649086,"minutes":132,"tier":5},{"id":"spider_石笋一村_浦东","name":"石笋一村","lat":31.025873,"lng":121.646361,"minutes":133,"tier":5},{"id":"spider_石笋二村_浦东","name":"石笋二村","lat":31.024382,"lng":121.646455,"minutes":136,"tier":5},{"id":"spider_军民新村(海泉街)_浦东","name":"军民新村(海泉街)","lat":31.026453,"lng":121.645939,"minutes":133,"tier":5},{"id":"spider_中粮首创禧瑞祥云_浦东","name":"中粮首创禧瑞祥云","lat":31.209784,"lng":121.562961,"minutes":65,"tier":5},{"id":"spider_笋心路19弄29支弄_浦东","name":"笋心路19弄29支弄","lat":31.026933,"lng":121.648454,"minutes":134,"tier":5},{"id":"spider_欣春苑_浦东","name":"欣春苑","lat":31.027101,"lng":121.70927,"minutes":123,"tier":5},{"id":"spider_艺泰安邦_浦东","name":"艺泰安邦","lat":31.054214,"lng":121.741191,"minutes":111,"tier":5},{"id":"spider_欣兰苑_浦东","name":"欣兰苑","lat":31.02685,"lng":121.705279,"minutes":112,"tier":5},{"id":"spider_欣秋苑_浦东","name":"欣秋苑","lat":31.027579,"lng":121.71137,"minutes":119,"tier":5},{"id":"spider_欣梅苑_浦东","name":"欣梅苑","lat":31.025127,"lng":121.704295,"minutes":115,"tier":5},{"id":"spider_九九别墅（北苑）_浦东","name":"九九别墅（北苑）","lat":31.023017,"lng":121.706034,"minutes":117,"tier":5},{"id":"spider_欣荷苑_浦东","name":"欣荷苑","lat":31.023682,"lng":121.706649,"minutes":118,"tier":5},{"id":"spider_景瑞法兰云廷_浦东","name":"景瑞法兰云廷","lat":31.038848,"lng":121.699482,"minutes":110,"tier":5},{"id":"spider_海防新村_浦东","name":"海防新村","lat":31.251346,"lng":121.556881,"minutes":87,"tier":5},{"id":"spider_崮山小区三街坊_浦东","name":"崮山小区三街坊","lat":31.243245,"lng":121.565613,"minutes":75,"tier":5},{"id":"spider_栖山小区_浦东","name":"栖山小区","lat":31.246992,"lng":121.543842,"minutes":71,"tier":5},{"id":"spider_凌四小区_浦东","name":"凌四小区","lat":31.250705,"lng":121.549194,"minutes":81,"tier":5},{"id":"spider_阳二小区_浦东","name":"阳二小区","lat":31.249338,"lng":121.554782,"minutes":80,"tier":5},{"id":"spider_凌三小区_浦东","name":"凌三小区","lat":31.250381,"lng":121.54827,"minutes":81,"tier":5},{"id":"spider_崮山小区二街坊_浦东","name":"崮山小区二街坊","lat":31.24199,"lng":121.566607,"minutes":78,"tier":5},{"id":"spider_泾东小区_浦东","name":"泾东小区","lat":31.247532,"lng":121.560869,"minutes":82,"tier":5},{"id":"spider_万科翡翠滨江（二期）_浦东","name":"万科翡翠滨江（二期）","lat":31.250046,"lng":121.544902,"minutes":79,"tier":5},{"id":"spider_明珠苑(浦东)_浦东","name":"明珠苑(浦东)","lat":31.243266,"lng":121.56069,"minutes":75,"tier":5},{"id":"spider_鼎隆大厦_浦东","name":"鼎隆大厦","lat":31.250775,"lng":121.55419,"minutes":82,"tier":5},{"id":"spider_龙珠公寓_浦东","name":"龙珠公寓","lat":31.252506,"lng":121.551856,"minutes":80,"tier":5},{"id":"spider_绿地泾南公寓_浦东","name":"绿地泾南公寓","lat":31.233303,"lng":121.555349,"minutes":65,"tier":5},{"id":"spider_中星海上景庭_浦东","name":"中星海上景庭","lat":31.243583,"lng":121.551652,"minutes":78,"tier":5},{"id":"spider_雅华公寓_浦东","name":"雅华公寓","lat":31.250819,"lng":121.552827,"minutes":77,"tier":5},{"id":"spider_名门河滨花园_浦东","name":"名门河滨花园","lat":31.252598,"lng":121.562078,"minutes":87,"tier":5},{"id":"spider_巨野小区_浦东","name":"巨野小区","lat":31.245937,"lng":121.545158,"minutes":70,"tier":5},{"id":"spider_泾华新村_浦东","name":"泾华新村","lat":31.24859,"lng":121.547072,"minutes":85,"tier":5},{"id":"spider_中星怡景花园_浦东","name":"中星怡景花园","lat":31.237876,"lng":121.55659,"minutes":71,"tier":5},{"id":"spider_金淙苑_浦东","name":"金淙苑","lat":31.245604,"lng":121.549229,"minutes":80,"tier":5},{"id":"spider_旭辉新构想_浦东","name":"旭辉新构想","lat":31.247028,"lng":121.548062,"minutes":75,"tier":5},{"id":"spider_第五大道_浦东","name":"第五大道","lat":31.236383,"lng":121.551024,"minutes":74,"tier":5},{"id":"spider_海三小区_浦东","name":"海三小区","lat":31.249163,"lng":121.556758,"minutes":88,"tier":5},{"id":"spider_张杨南苑_浦东","name":"张杨南苑","lat":31.241458,"lng":121.556959,"minutes":74,"tier":5},{"id":"spider_羽北小区_浦东","name":"羽北小区","lat":31.240053,"lng":121.550773,"minutes":71,"tier":5},{"id":"spider_阳光三村_浦东","name":"阳光三村","lat":31.250092,"lng":121.555788,"minutes":81,"tier":5},{"id":"spider_海苑大厦_浦东","name":"海苑大厦","lat":31.23796,"lng":121.54726,"minutes":72,"tier":5},{"id":"spider_和达家园_浦东","name":"和达家园","lat":31.249911,"lng":121.548123,"minutes":81,"tier":5},{"id":"spider_新城海上名园_浦东","name":"新城海上名园","lat":31.233391,"lng":121.556036,"minutes":63,"tier":5},{"id":"spider_羽山路1000弄_浦东","name":"羽山路1000弄","lat":31.239881,"lng":121.559747,"minutes":75,"tier":5},{"id":"spider_凌二小区_浦东","name":"凌二小区","lat":31.249577,"lng":121.546381,"minutes":77,"tier":5},{"id":"spider_永安新村_浦东","name":"永安新村","lat":31.251809,"lng":121.55411,"minutes":81,"tier":5},{"id":"spider_龙威名邸_浦东","name":"龙威名邸","lat":31.240574,"lng":121.55138,"minutes":71,"tier":5},{"id":"spider_巨野路109弄_浦东","name":"巨野路109弄","lat":31.245466,"lng":121.548085,"minutes":76,"tier":5},{"id":"spider_苗圃路138弄_浦东","name":"苗圃路138弄","lat":31.250036,"lng":121.553052,"minutes":77,"tier":5},{"id":"spider_金羽名庭_浦东","name":"金羽名庭","lat":31.24019,"lng":121.559873,"minutes":77,"tier":5},{"id":"spider_卫东新村_浦东","name":"卫东新村","lat":31.248338,"lng":121.545202,"minutes":75,"tier":5},{"id":"spider_凌一小区_浦东","name":"凌一小区","lat":31.249152,"lng":121.544635,"minutes":76,"tier":5},{"id":"spider_翡翠湾公寓_浦东","name":"翡翠湾公寓","lat":31.244061,"lng":121.560838,"minutes":78,"tier":5},{"id":"spider_铂悦滨江_浦东","name":"铂悦滨江","lat":31.245949,"lng":121.556931,"minutes":84,"tier":5},{"id":"spider_中星恬园_浦东","name":"中星恬园","lat":31.235241,"lng":121.554403,"minutes":68,"tier":5},{"id":"spider_南洋苑_浦东","name":"南洋苑","lat":31.240816,"lng":121.556563,"minutes":73,"tier":5},{"id":"spider_海光大楼_浦东","name":"海光大楼","lat":31.245318,"lng":121.553158,"minutes":83,"tier":5},{"id":"spider_益达公寓_浦东","name":"益达公寓","lat":31.236899,"lng":121.564574,"minutes":73,"tier":5},{"id":"spider_栖山路450弄_浦东","name":"栖山路450弄","lat":31.253811,"lng":121.557953,"minutes":84,"tier":5},{"id":"spider_浦发壹滨江_浦东","name":"浦发壹滨江","lat":31.249489,"lng":121.543205,"minutes":79,"tier":5},{"id":"spider_森林湾公寓_浦东","name":"森林湾公寓","lat":31.240804,"lng":121.559023,"minutes":77,"tier":5},{"id":"spider_源城锦苑_浦东","name":"源城锦苑","lat":31.152449,"lng":121.501922,"minutes":66,"tier":5},{"id":"spider_三林世博家园(板泉路2000弄)_浦东","name":"三林世博家园(板泉路2000弄)","lat":31.169539,"lng":121.535627,"minutes":95,"tier":5},{"id":"spider_三林世博家园(大道站路94弄)_浦东","name":"三林世博家园(大道站路94弄)","lat":31.162548,"lng":121.54291,"minutes":152,"tier":5},{"id":"spider_恒大华城东林苑_浦东","name":"恒大华城东林苑","lat":31.162531,"lng":121.491868,"minutes":66,"tier":5},{"id":"spider_万科金色公馆_浦东","name":"万科金色公馆","lat":31.16312,"lng":121.48555,"minutes":84,"tier":5},{"id":"spider_万科五玠坊_浦东","name":"万科五玠坊","lat":31.157136,"lng":121.517534,"minutes":95,"tier":5},{"id":"spider_尚东国际名园（二期）_浦东","name":"尚东国际名园（二期）","lat":31.163362,"lng":121.516538,"minutes":84,"tier":5},{"id":"spider_南杨小区(新浦路)_浦东","name":"南杨小区(新浦路)","lat":31.175235,"lng":121.53843,"minutes":79,"tier":5},{"id":"spider_南江苑_浦东","name":"南江苑","lat":31.180161,"lng":121.545488,"minutes":71,"tier":5},{"id":"spider_桃李家园_浦东","name":"桃李家园","lat":31.163609,"lng":121.508611,"minutes":86,"tier":5},{"id":"spider_海悦华庭_浦东","name":"海悦华庭","lat":31.153275,"lng":121.48372,"minutes":67,"tier":5},{"id":"spider_吉利名苑_浦东","name":"吉利名苑","lat":31.162243,"lng":121.511216,"minutes":84,"tier":5},{"id":"spider_海阳新村_浦东","name":"海阳新村","lat":31.156553,"lng":121.497451,"minutes":71,"tier":5},{"id":"spider_绿茵苑(浦东)_浦东","name":"绿茵苑(浦东)","lat":31.153473,"lng":121.504645,"minutes":66,"tier":5},{"id":"spider_三林世博家园(新浦路251弄)_浦东","name":"三林世博家园(新浦路251弄)","lat":31.167518,"lng":121.540856,"minutes":94,"tier":5},{"id":"spider_艾南小区_浦东","name":"艾南小区","lat":31.174235,"lng":121.537032,"minutes":83,"tier":5},{"id":"spider_万科金色里程(公寓)_浦东","name":"万科金色里程(公寓)","lat":31.164869,"lng":121.532254,"minutes":80,"tier":5},{"id":"spider_上南山水苑_浦东","name":"上南山水苑","lat":31.161718,"lng":121.507725,"minutes":88,"tier":5},{"id":"spider_联丰一期_浦东","name":"联丰一期","lat":31.162344,"lng":121.50657,"minutes":79,"tier":5},